{
"type": "FeatureCollection",
"name": "ski_areas_all",
"crs": { "type": "name", "properties": { "name": "urn:ogc:def:crs:OGC:1.3:CRS84" } },
"features": [
{ "type": "Feature", "properties": { "STATE": "CALIFORNIA", "NAME": "Mt. Waterman", "TYPE": "Cross-Country" }, "geometry": { "type": "Point", "coordinates": [ -117.93367, 34.34613 ] } },
{ "type": "Feature", "properties": { "STATE": "NEW MEXICO", "NAME": "Als Run", "TYPE": "Cross-Country" }, "geometry": { "type": "Point", "coordinates": [ -105.45278, 36.59449 ] } },
{ "type": "Feature", "properties": { "STATE": "NEW MEXICO", "NAME": "High Noon", "TYPE": "Cross-Country" }, "geometry": { "type": "Point", "coordinates": [ -105.45278, 36.59449 ] } },
{ "type": "Feature", "properties": { "STATE": "NEW MEXICO", "NAME": "Psycho Path", "TYPE": "Cross-Country" }, "geometry": { "type": "Point", "coordinates": [ -105.45278, 36.59449 ] } },
{ "type": "Feature", "properties": { "STATE": "NEW MEXICO", "NAME": "Snakedance", "TYPE": "Cross-Country" }, "geometry": { "type": "Point", "coordinates": [ -105.45278, 36.59449 ] } },
{ "type": "Feature", "properties": { "STATE": "NEW MEXICO", "NAME": "Totemoff", "TYPE": "Cross-Country" }, "geometry": { "type": "Point", "coordinates": [ -105.45278, 36.59449 ] } },
{ "type": "Feature", "properties": { "STATE": "NEW MEXICO", "NAME": "Whitefeather", "TYPE": "Cross-Country" }, "geometry": { "type": "Point", "coordinates": [ -105.45278, 36.59449 ] } },
{ "type": "Feature", "properties": { "STATE": "MICHIGAN", "NAME": "Norway Mt.", "TYPE": "Cross-Country" }, "geometry": { "type": "Point", "coordinates": [ -87.90361, 45.78694 ] } },
{ "type": "Feature", "properties": { "STATE": "MONTANA", "NAME": "Montana Snow Bowl", "TYPE": "Cross-Country" }, "geometry": { "type": "Point", "coordinates": [ -113.99639, 47.02361 ] } },
{ "type": "Feature", "properties": { "STATE": "MONTANA", "NAME": "Big Mt.", "TYPE": "Cross-Country" }, "geometry": { "type": "Point", "coordinates": [ -114.35278, 48.485 ] } },
{ "type": "Feature", "properties": { "STATE": "ALABAMA", "NAME": "Cloudmont-Mentone Ski Area", "TYPE": "Both" }, "geometry": { "type": "Point", "coordinates": [ -85.60333, 34.54 ] } },
{ "type": "Feature", "properties": { "STATE": "ARIZONA", "NAME": "Cococino XC Ski Trail", "TYPE": "Alpine" }, "geometry": { "type": "Point", "coordinates": [ -111.96611, 35.36667 ] } },
{ "type": "Feature", "properties": { "STATE": "ARIZONA", "NAME": "Snowbowl Ski Area", "TYPE": "Both" }, "geometry": { "type": "Point", "coordinates": [ -111.69517, 35.32782 ] } },
{ "type": "Feature", "properties": { "STATE": "ARIZONA", "NAME": "Sunrise Peak Ski Area", "TYPE": "Both" }, "geometry": { "type": "Point", "coordinates": [ -109.56344, 33.97341 ] } },
{ "type": "Feature", "properties": { "STATE": "ARIZONA", "NAME": "Williams Ski Area", "TYPE": "Both" }, "geometry": { "type": "Point", "coordinates": [ -112.19241, 35.2106 ] } },
{ "type": "Feature", "properties": { "STATE": "CALIFORNIA", "NAME": "Alpine Meadows Ski Area", "TYPE": "Both" }, "geometry": { "type": "Point", "coordinates": [ -120.23907, 39.1574 ] } },
{ "type": "Feature", "properties": { "STATE": "CALIFORNIA", "NAME": "Badger Pass Ski Area", "TYPE": "Both" }, "geometry": { "type": "Point", "coordinates": [ -119.6643, 37.66243 ] } },
{ "type": "Feature", "properties": { "STATE": "CALIFORNIA", "NAME": "Bear River Resort Ski Area", "TYPE": "Both" }, "geometry": { "type": "Point", "coordinates": [ -120.26461, 38.56102 ] } },
{ "type": "Feature", "properties": { "STATE": "CALIFORNIA", "NAME": "Bear Valley Ski Area", "TYPE": "Both" }, "geometry": { "type": "Point", "coordinates": [ -120.0446, 38.49213 ] } },
{ "type": "Feature", "properties": { "STATE": "CALIFORNIA", "NAME": "Big Meadows Nordic Ski Trail", "TYPE": "Alpine" }, "geometry": { "type": "Point", "coordinates": [ -118.84861, 36.69889 ] } },
{ "type": "Feature", "properties": { "STATE": "CALIFORNIA", "NAME": "Blue Ridge Ski Lift", "TYPE": "Both" }, "geometry": { "type": "Point", "coordinates": [ -117.69194, 34.36917 ] } },
{ "type": "Feature", "properties": { "STATE": "CALIFORNIA", "NAME": "Boreal Ridge Ski Area", "TYPE": "Both" }, "geometry": { "type": "Point", "coordinates": [ -120.35101, 39.33157 ] } },
{ "type": "Feature", "properties": { "STATE": "CALIFORNIA", "NAME": "Camp Richardson Cross Country Ski Ar", "TYPE": "Alpine" }, "geometry": { "type": "Point", "coordinates": [ -120.0385, 38.92908 ] } },
{ "type": "Feature", "properties": { "STATE": "CALIFORNIA", "NAME": "Cedar Pass Ski Area", "TYPE": "Both" }, "geometry": { "type": "Point", "coordinates": [ -120.26104, 41.55598 ] } },
{ "type": "Feature", "properties": { "STATE": "CALIFORNIA", "NAME": "Chinese Peak Ski Area", "TYPE": "Both" }, "geometry": { "type": "Point", "coordinates": [ -119.15651, 37.22716 ] } },
{ "type": "Feature", "properties": { "STATE": "CALIFORNIA", "NAME": "Cidar Pass Ski Course", "TYPE": "Both" }, "geometry": { "type": "Point", "coordinates": [ -120.26361, 41.555 ] } },
{ "type": "Feature", "properties": { "STATE": "CALIFORNIA", "NAME": "Coppervale Ski Tow", "TYPE": "Both" }, "geometry": { "type": "Point", "coordinates": [ -120.90278, 40.34528 ] } },
{ "type": "Feature", "properties": { "STATE": "CALIFORNIA", "NAME": "Deer Park Ski Area", "TYPE": "Both" }, "geometry": { "type": "Point", "coordinates": [ -120.19907, 39.18657 ] } },
{ "type": "Feature", "properties": { "STATE": "CALIFORNIA", "NAME": "Dodge Ridge Ski Area", "TYPE": "Both" }, "geometry": { "type": "Point", "coordinates": [ -119.95016, 38.18631 ] } },
{ "type": "Feature", "properties": { "STATE": "CALIFORNIA", "NAME": "Donner Summit Ski Area", "TYPE": "Both" }, "geometry": { "type": "Point", "coordinates": [ -120.3299, 39.32351 ] } },
{ "type": "Feature", "properties": { "STATE": "CALIFORNIA", "NAME": "Eagles Peak Ski Area", "TYPE": "Both" }, "geometry": { "type": "Point", "coordinates": [ -120.12046, 39.9735 ] } },
{ "type": "Feature", "properties": { "STATE": "CALIFORNIA", "NAME": "Gold Mine Ski Area", "TYPE": "Both" }, "geometry": { "type": "Point", "coordinates": [ -116.86447, 34.22642 ] } },
{ "type": "Feature", "properties": { "STATE": "CALIFORNIA", "NAME": "Granlibakken Ski Area", "TYPE": "Both" }, "geometry": { "type": "Point", "coordinates": [ -120.15628, 39.1549 ] } },
{ "type": "Feature", "properties": { "STATE": "CALIFORNIA", "NAME": "Green Valley Ski Area", "TYPE": "Both" }, "geometry": { "type": "Point", "coordinates": [ -117.07222, 34.23611 ] } },
{ "type": "Feature", "properties": { "STATE": "CALIFORNIA", "NAME": "Holiday Hill Ski Lift", "TYPE": "Alpine" }, "geometry": { "type": "Point", "coordinates": [ -117.67833, 34.36472 ] } },
{ "type": "Feature", "properties": { "STATE": "CALIFORNIA", "NAME": "Homewood Ski Area", "TYPE": "Both" }, "geometry": { "type": "Point", "coordinates": [ -120.16739, 39.0799 ] } },
{ "type": "Feature", "properties": { "STATE": "CALIFORNIA", "NAME": "June Mountain Ski Area", "TYPE": "Both" }, "geometry": { "type": "Point", "coordinates": [ -119.07263, 37.75133 ] } },
{ "type": "Feature", "properties": { "STATE": "CALIFORNIA", "NAME": "Kirkwood Ski Area", "TYPE": "Both" }, "geometry": { "type": "Point", "coordinates": [ -120.04294, 38.67824 ] } },
{ "type": "Feature", "properties": { "STATE": "CALIFORNIA", "NAME": "Kratka Ridge Ski Area", "TYPE": "Both" }, "geometry": { "type": "Point", "coordinates": [ -117.89811, 34.35113 ] } },
{ "type": "Feature", "properties": { "STATE": "CALIFORNIA", "NAME": "Mount High East Ski Area", "TYPE": "Both" }, "geometry": { "type": "Point", "coordinates": [ -117.67977, 34.36919 ] } },
{ "type": "Feature", "properties": { "STATE": "CALIFORNIA", "NAME": "Mount High East Ski Area", "TYPE": "Alpine" }, "geometry": { "type": "Point", "coordinates": [ -117.43059, 34.36696 ] } },
{ "type": "Feature", "properties": { "STATE": "CALIFORNIA", "NAME": "Mount High West Ski Area", "TYPE": "Both" }, "geometry": { "type": "Point", "coordinates": [ -117.69199, 34.37169 ] } },
{ "type": "Feature", "properties": { "STATE": "CALIFORNIA", "NAME": "Mount High West Ski Area", "TYPE": "Alpine" }, "geometry": { "type": "Point", "coordinates": [ -117.7406, 34.35474 ] } },
{ "type": "Feature", "properties": { "STATE": "CALIFORNIA", "NAME": "Mount Reba Ski Area", "TYPE": "Both" }, "geometry": { "type": "Point", "coordinates": [ -120.04905, 38.49547 ] } },
{ "type": "Feature", "properties": { "STATE": "CALIFORNIA", "NAME": "Mount Shasta Ski Park Resort", "TYPE": "Both" }, "geometry": { "type": "Point", "coordinates": [ -122.20194, 41.32222 ] } },
{ "type": "Feature", "properties": { "STATE": "CALIFORNIA", "NAME": "Mount Waterman Ski Area", "TYPE": "Alpine" }, "geometry": { "type": "Point", "coordinates": [ -117.93367, 34.34613 ] } },
{ "type": "Feature", "properties": { "STATE": "CALIFORNIA", "NAME": "North Star Ski Area", "TYPE": "Both" }, "geometry": { "type": "Point", "coordinates": [ -120.12268, 39.25573 ] } },
{ "type": "Feature", "properties": { "STATE": "CALIFORNIA", "NAME": "Northstar-at-Tahoe Ski Area", "TYPE": "Alpine" }, "geometry": { "type": "Point", "coordinates": [ -120.1024, 39.27323 ] } },
{ "type": "Feature", "properties": { "STATE": "CALIFORNIA", "NAME": "Powder Bowl Ski Area", "TYPE": "Both" }, "geometry": { "type": "Point", "coordinates": [ -120.20212, 39.18157 ] } },
{ "type": "Feature", "properties": { "STATE": "CALIFORNIA", "NAME": "Shirley Meadow Ski Area", "TYPE": "Both" }, "geometry": { "type": "Point", "coordinates": [ -118.55925, 35.70915 ] } },
{ "type": "Feature", "properties": { "STATE": "CALIFORNIA", "NAME": "Sierra Ski Ranch", "TYPE": "Both" }, "geometry": { "type": "Point", "coordinates": [ -120.07806, 38.79694 ] } },
{ "type": "Feature", "properties": { "STATE": "CALIFORNIA", "NAME": "Silver Basin Ski Area", "TYPE": "Both" }, "geometry": { "type": "Point", "coordinates": [ -120.20767, 38.63241 ] } },
{ "type": "Feature", "properties": { "STATE": "CALIFORNIA", "NAME": "Ski Echo Tahoe", "TYPE": "Both" }, "geometry": { "type": "Point", "coordinates": [ -120.035, 38.80667 ] } },
{ "type": "Feature", "properties": { "STATE": "CALIFORNIA", "NAME": "Ski Heil Peak", "TYPE": "Both" }, "geometry": { "type": "Point", "coordinates": [ -121.52111, 40.47278 ] } },
{ "type": "Feature", "properties": { "STATE": "CALIFORNIA", "NAME": "Snow Forest Ski Area", "TYPE": "Alpine" }, "geometry": { "type": "Point", "coordinates": [ -116.91667, 34.23444 ] } },
{ "type": "Feature", "properties": { "STATE": "CALIFORNIA", "NAME": "Snow Summit Ski Area", "TYPE": "Both" }, "geometry": { "type": "Point", "coordinates": [ -116.89028, 34.22861 ] } },
{ "type": "Feature", "properties": { "STATE": "CALIFORNIA", "NAME": "Snow Valley Ski Area", "TYPE": "Alpine" }, "geometry": { "type": "Point", "coordinates": [ -117.03472, 34.21722 ] } },
{ "type": "Feature", "properties": { "STATE": "CALIFORNIA", "NAME": "Soda Springs Ski Area", "TYPE": "Both" }, "geometry": { "type": "Point", "coordinates": [ -120.38351, 39.31907 ] } },
{ "type": "Feature", "properties": { "STATE": "CALIFORNIA", "NAME": "Squaw Valley Ski Area", "TYPE": "Both" }, "geometry": { "type": "Point", "coordinates": [ -120.25184, 39.19129 ] } },
{ "type": "Feature", "properties": { "STATE": "CALIFORNIA", "NAME": "Stover Mountain Ski Area", "TYPE": "Both" }, "geometry": { "type": "Point", "coordinates": [ -121.28938, 40.28931 ] } },
{ "type": "Feature", "properties": { "STATE": "CALIFORNIA", "NAME": "Sugar Bowl Ski Area", "TYPE": "Both" }, "geometry": { "type": "Point", "coordinates": [ -120.33573, 39.30434 ] } },
{ "type": "Feature", "properties": { "STATE": "CALIFORNIA", "NAME": "Sunrise Ski Area", "TYPE": "Both" }, "geometry": { "type": "Point", "coordinates": [ -117.68421, 34.38835 ] } },
{ "type": "Feature", "properties": { "STATE": "CALIFORNIA", "NAME": "Tahoe Donner Ski Area", "TYPE": "Both" }, "geometry": { "type": "Point", "coordinates": [ -120.27157, 39.3524 ] } },
{ "type": "Feature", "properties": { "STATE": "CALIFORNIA", "NAME": "Tahoe Ski Bowl Area", "TYPE": "Both" }, "geometry": { "type": "Point", "coordinates": [ -120.15917, 39.065 ] } },
{ "type": "Feature", "properties": { "STATE": "CALIFORNIA", "NAME": "Tamarack Cross Country Ski Center", "TYPE": "Alpine" }, "geometry": { "type": "Point", "coordinates": [ -119.00556, 37.61861 ] } },
{ "type": "Feature", "properties": { "STATE": "COLORADO", "NAME": "Arapaho Basin Ski Area", "TYPE": "Both" }, "geometry": { "type": "Point", "coordinates": [ -105.87309, 39.6436 ] } },
{ "type": "Feature", "properties": { "STATE": "COLORADO", "NAME": "Aspen Highlands Ski Area", "TYPE": "Alpine" }, "geometry": { "type": "Point", "coordinates": [ -106.81694, 39.19111 ] } },
{ "type": "Feature", "properties": { "STATE": "COLORADO", "NAME": "Aspen Mountain Ski Area", "TYPE": "Both" }, "geometry": { "type": "Point", "coordinates": [ -106.82861, 39.17611 ] } },
{ "type": "Feature", "properties": { "STATE": "COLORADO", "NAME": "Berthoud Pass Ski Area", "TYPE": "Both" }, "geometry": { "type": "Point", "coordinates": [ -105.78003, 39.79943 ] } },
{ "type": "Feature", "properties": { "STATE": "COLORADO", "NAME": "Breckenridge Ski Area", "TYPE": "Both" }, "geometry": { "type": "Point", "coordinates": [ -106.07393, 39.47388 ] } },
{ "type": "Feature", "properties": { "STATE": "COLORADO", "NAME": "Buttermilk Ski Area", "TYPE": "Both" }, "geometry": { "type": "Point", "coordinates": [ -106.81694, 39.19111 ] } },
{ "type": "Feature", "properties": { "STATE": "COLORADO", "NAME": "Chapman Hill Municipal Ski Area", "TYPE": "Both" }, "geometry": { "type": "Point", "coordinates": [ -107.86952, 37.28308 ] } },
{ "type": "Feature", "properties": { "STATE": "COLORADO", "NAME": "Conquistador Ski Area", "TYPE": "Both" }, "geometry": { "type": "Point", "coordinates": [ -105.58501, 38.11752 ] } },
{ "type": "Feature", "properties": { "STATE": "COLORADO", "NAME": "Cooper Hill Ski Area", "TYPE": "Both" }, "geometry": { "type": "Point", "coordinates": [ -106.30228, 39.36055 ] } },
{ "type": "Feature", "properties": { "STATE": "COLORADO", "NAME": "Copper Mountain Ski Area", "TYPE": "Both" }, "geometry": { "type": "Point", "coordinates": [ -106.16143, 39.48638 ] } },
{ "type": "Feature", "properties": { "STATE": "COLORADO", "NAME": "Crested Butte Ski Area", "TYPE": "Both" }, "geometry": { "type": "Point", "coordinates": [ -106.94306, 38.88333 ] } },
{ "type": "Feature", "properties": { "STATE": "COLORADO", "NAME": "Cuchara Valley Ski Area", "TYPE": "Both" }, "geometry": { "type": "Point", "coordinates": [ -105.12583, 37.34781 ] } },
{ "type": "Feature", "properties": { "STATE": "COLORADO", "NAME": "First Creek Ski Cabin", "TYPE": "Alpine" }, "geometry": { "type": "Point", "coordinates": [ -105.76806, 39.83278 ] } },
{ "type": "Feature", "properties": { "STATE": "COLORADO", "NAME": "Geneva Basin Ski Area", "TYPE": "Both" }, "geometry": { "type": "Point", "coordinates": [ -105.73031, 39.56806 ] } },
{ "type": "Feature", "properties": { "STATE": "COLORADO", "NAME": "Guinn Mountain Ski Trail", "TYPE": "Alpine" }, "geometry": { "type": "Point", "coordinates": [ -105.63111, 39.93556 ] } },
{ "type": "Feature", "properties": { "STATE": "COLORADO", "NAME": "Hesperus Ski Center", "TYPE": "Both" }, "geometry": { "type": "Point", "coordinates": [ -108.05444, 37.29778 ] } },
{ "type": "Feature", "properties": { "STATE": "COLORADO", "NAME": "Howelsen Hill Ski Area", "TYPE": "Both" }, "geometry": { "type": "Point", "coordinates": [ -106.83896, 40.48276 ] } },
{ "type": "Feature", "properties": { "STATE": "COLORADO", "NAME": "Idlewild Ski Area", "TYPE": "Both" }, "geometry": { "type": "Point", "coordinates": [ -105.77837, 39.92471 ] } },
{ "type": "Feature", "properties": { "STATE": "COLORADO", "NAME": "Indian Mountain Ski Area", "TYPE": "Both" }, "geometry": { "type": "Point", "coordinates": [ -105.7292, 39.24472 ] } },
{ "type": "Feature", "properties": { "STATE": "COLORADO", "NAME": "Jenny Creek Ski Area", "TYPE": "Both" }, "geometry": { "type": "Point", "coordinates": [ -105.58642, 39.93527 ] } },
{ "type": "Feature", "properties": { "STATE": "COLORADO", "NAME": "Keystone Ski Area", "TYPE": "Both" }, "geometry": { "type": "Point", "coordinates": [ -105.95338, 39.59055 ] } },
{ "type": "Feature", "properties": { "STATE": "COLORADO", "NAME": "Lake Eldora Ski Area", "TYPE": "Both" }, "geometry": { "type": "Point", "coordinates": [ -105.59087, 39.9361 ] } },
{ "type": "Feature", "properties": { "STATE": "COLORADO", "NAME": "Loveland Ski Area", "TYPE": "Both" }, "geometry": { "type": "Point", "coordinates": [ -105.90116, 39.67805 ] } },
{ "type": "Feature", "properties": { "STATE": "COLORADO", "NAME": "Mary Jane Ski Area", "TYPE": "Both" }, "geometry": { "type": "Point", "coordinates": [ -105.77115, 39.86805 ] } },
{ "type": "Feature", "properties": { "STATE": "COLORADO", "NAME": "Monarch Ski Area", "TYPE": "Both" }, "geometry": { "type": "Point", "coordinates": [ -106.33949, 38.51029 ] } },
{ "type": "Feature", "properties": { "STATE": "COLORADO", "NAME": "Pikes Peak Ski Area", "TYPE": "Both" }, "geometry": { "type": "Point", "coordinates": [ -105.06167, 38.8864 ] } },
{ "type": "Feature", "properties": { "STATE": "COLORADO", "NAME": "Powderhorn Ski Area", "TYPE": "Both" }, "geometry": { "type": "Point", "coordinates": [ -108.15899, 39.06749 ] } },
{ "type": "Feature", "properties": { "STATE": "COLORADO", "NAME": "Purgatory Ski Area", "TYPE": "Both" }, "geometry": { "type": "Point", "coordinates": [ -107.82814, 37.62445 ] } },
{ "type": "Feature", "properties": { "STATE": "COLORADO", "NAME": "Raton Ski Basin", "TYPE": "Both" }, "geometry": { "type": "Point", "coordinates": [ -104.34611, 37.00528 ] } },
{ "type": "Feature", "properties": { "STATE": "COLORADO", "NAME": "Rock Creek Ski Area", "TYPE": "Both" }, "geometry": { "type": "Point", "coordinates": [ -105.5367, 40.16082 ] } },
{ "type": "Feature", "properties": { "STATE": "COLORADO", "NAME": "San Isabel Ski Area", "TYPE": "Both" }, "geometry": { "type": "Point", "coordinates": [ -105.12084, 38.09196 ] } },
{ "type": "Feature", "properties": { "STATE": "COLORADO", "NAME": "Sevenmile Ski Trail", "TYPE": "Alpine" }, "geometry": { "type": "Point", "coordinates": [ -105.7675, 39.81583 ] } },
{ "type": "Feature", "properties": { "STATE": "COLORADO", "NAME": "Silver Creek Ski Area", "TYPE": "Both" }, "geometry": { "type": "Point", "coordinates": [ -105.90421, 40.03999 ] } },
{ "type": "Feature", "properties": { "STATE": "COLORADO", "NAME": "Silver Lake Ski Area", "TYPE": "Both" }, "geometry": { "type": "Point", "coordinates": [ -105.64531, 39.82693 ] } },
{ "type": "Feature", "properties": { "STATE": "COLORADO", "NAME": "Ski Hi Ranch", "TYPE": "Alpine" }, "geometry": { "type": "Point", "coordinates": [ -107.3475, 37.76472 ] } },
{ "type": "Feature", "properties": { "STATE": "COLORADO", "NAME": "Snowmass Ski Area", "TYPE": "Both" }, "geometry": { "type": "Point", "coordinates": [ -107.06583, 39.11889 ] } },
{ "type": "Feature", "properties": { "STATE": "COLORADO", "NAME": "Squaw Pass Ski Area", "TYPE": "Both" }, "geometry": { "type": "Point", "coordinates": [ -105.52002, 39.68527 ] } },
{ "type": "Feature", "properties": { "STATE": "COLORADO", "NAME": "Stagecoach Ski Area", "TYPE": "Both" }, "geometry": { "type": "Point", "coordinates": [ -106.8673, 40.24442 ] } },
{ "type": "Feature", "properties": { "STATE": "COLORADO", "NAME": "Steamboat Ski Area", "TYPE": "Both" }, "geometry": { "type": "Point", "coordinates": [ -106.77285, 40.45637 ] } },
{ "type": "Feature", "properties": { "STATE": "COLORADO", "NAME": "Stoner Ski Area", "TYPE": "Both" }, "geometry": { "type": "Point", "coordinates": [ -108.32009, 37.58418 ] } },
{ "type": "Feature", "properties": { "STATE": "COLORADO", "NAME": "Telluride Ski Area", "TYPE": "Both" }, "geometry": { "type": "Point", "coordinates": [ -107.84342, 37.92612 ] } },
{ "type": "Feature", "properties": { "STATE": "COLORADO", "NAME": "Tenderfoot Ski Area", "TYPE": "Both" }, "geometry": { "type": "Point", "coordinates": [ -105.14862, 38.76751 ] } },
{ "type": "Feature", "properties": { "STATE": "COLORADO", "NAME": "Vail Ski Area", "TYPE": "Both" }, "geometry": { "type": "Point", "coordinates": [ -106.37505, 39.61416 ] } },
{ "type": "Feature", "properties": { "STATE": "COLORADO", "NAME": "Winter Park Ski Area", "TYPE": "Both" }, "geometry": { "type": "Point", "coordinates": [ -105.77392, 39.88332 ] } },
{ "type": "Feature", "properties": { "STATE": "CONNECTICUT", "NAME": "Mohawk Mountain Ski Area", "TYPE": "Both" }, "geometry": { "type": "Point", "coordinates": [ -73.30778, 41.83167 ] } },
{ "type": "Feature", "properties": { "STATE": "CONNECTICUT", "NAME": "Mt. Southington Ski Area", "TYPE": "Both" }, "geometry": { "type": "Point", "coordinates": [ -72.92556, 41.5825 ] } },
{ "type": "Feature", "properties": { "STATE": "CONNECTICUT", "NAME": "Northview Ski Slope", "TYPE": "Both" }, "geometry": { "type": "Point", "coordinates": [ -72.52667, 41.75056 ] } },
{ "type": "Feature", "properties": { "STATE": "CONNECTICUT", "NAME": "Powder Ridge Ski Area", "TYPE": "Both" }, "geometry": { "type": "Point", "coordinates": [ -72.7125, 41.51722 ] } },
{ "type": "Feature", "properties": { "STATE": "CONNECTICUT", "NAME": "Ski Sundown", "TYPE": "Both" }, "geometry": { "type": "Point", "coordinates": [ -72.9775, 41.88222 ] } },
{ "type": "Feature", "properties": { "STATE": "CONNECTICUT", "NAME": "Winding Trails Cross Country Ski Cen", "TYPE": "Alpine" }, "geometry": { "type": "Point", "coordinates": [ -72.84611, 41.75528 ] } },
{ "type": "Feature", "properties": { "STATE": "CONNECTICUT", "NAME": "Woodbury Ski Area", "TYPE": "Both" }, "geometry": { "type": "Point", "coordinates": [ -73.34917, 41.79833 ] } },
{ "type": "Feature", "properties": { "STATE": "GEORGIA", "NAME": "Sky Valley Ski Area", "TYPE": "Both" }, "geometry": { "type": "Point", "coordinates": [ -83.33333, 34.9875 ] } },
{ "type": "Feature", "properties": { "STATE": "IDAHO", "NAME": "Bald Mountain Ski Area", "TYPE": "Both" }, "geometry": { "type": "Point", "coordinates": [ -114.40833, 43.655 ] } },
{ "type": "Feature", "properties": { "STATE": "IDAHO", "NAME": "Bear Gulch Ski Area", "TYPE": "Both" }, "geometry": { "type": "Point", "coordinates": [ -111.28914, 44.14964 ] } },
{ "type": "Feature", "properties": { "STATE": "IDAHO", "NAME": "Blizzard Mountain Ski Area", "TYPE": "Both" }, "geometry": { "type": "Point", "coordinates": [ -113.55921, 43.50823 ] } },
{ "type": "Feature", "properties": { "STATE": "IDAHO", "NAME": "Caribou Ski Area", "TYPE": "Both" }, "geometry": { "type": "Point", "coordinates": [ -112.33139, 42.86825 ] } },
{ "type": "Feature", "properties": { "STATE": "IDAHO", "NAME": "City Ski Area", "TYPE": "Both" }, "geometry": { "type": "Point", "coordinates": [ -115.82262, 43.82905 ] } },
{ "type": "Feature", "properties": { "STATE": "IDAHO", "NAME": "Dollar Mountain Ski Area", "TYPE": "Both" }, "geometry": { "type": "Point", "coordinates": [ -114.34222, 43.67917 ] } },
{ "type": "Feature", "properties": { "STATE": "IDAHO", "NAME": "Hitt Mountain Ski Area", "TYPE": "Both" }, "geometry": { "type": "Point", "coordinates": [ -116.92822, 44.62931 ] } },
{ "type": "Feature", "properties": { "STATE": "IDAHO", "NAME": "Kelly Canyon Ski Area", "TYPE": "Both" }, "geometry": { "type": "Point", "coordinates": [ -111.62999, 43.64575 ] } },
{ "type": "Feature", "properties": { "STATE": "IDAHO", "NAME": "Lamarack Ski Area", "TYPE": "Both" }, "geometry": { "type": "Point", "coordinates": [ -116.82547, 46.81569 ] } },
{ "type": "Feature", "properties": { "STATE": "IDAHO", "NAME": "Little Lost Ski Area", "TYPE": "Both" }, "geometry": { "type": "Point", "coordinates": [ -113.19448, 43.83324 ] } },
{ "type": "Feature", "properties": { "STATE": "IDAHO", "NAME": "Lolo Pass Ski Area", "TYPE": "Both" }, "geometry": { "type": "Point", "coordinates": [ -114.57652, 46.63655 ] } },
{ "type": "Feature", "properties": { "STATE": "IDAHO", "NAME": "Lookout Pass Ski Area", "TYPE": "Both" }, "geometry": { "type": "Point", "coordinates": [ -115.69684, 47.45488 ] } },
{ "type": "Feature", "properties": { "STATE": "IDAHO", "NAME": "Magic Mountain Ski Area", "TYPE": "Both" }, "geometry": { "type": "Point", "coordinates": [ -114.2856, 42.18824 ] } },
{ "type": "Feature", "properties": { "STATE": "IDAHO", "NAME": "North-South Ski Bowl", "TYPE": "Both" }, "geometry": { "type": "Point", "coordinates": [ -116.65667, 47.06583 ] } },
{ "type": "Feature", "properties": { "STATE": "IDAHO", "NAME": "Payette Lake Ski Area", "TYPE": "Alpine" }, "geometry": { "type": "Point", "coordinates": [ -116.16181, 44.92821 ] } },
{ "type": "Feature", "properties": { "STATE": "IDAHO", "NAME": "Payette Lakes Ski Area", "TYPE": "Both" }, "geometry": { "type": "Point", "coordinates": [ -116.1632, 44.92988 ] } },
{ "type": "Feature", "properties": { "STATE": "IDAHO", "NAME": "Pebble Creek Ski Area", "TYPE": "Both" }, "geometry": { "type": "Point", "coordinates": [ -112.15276, 42.77575 ] } },
{ "type": "Feature", "properties": { "STATE": "IDAHO", "NAME": "Pine Basin Ski Area", "TYPE": "Both" }, "geometry": { "type": "Point", "coordinates": [ -111.3272, 43.53159 ] } },
{ "type": "Feature", "properties": { "STATE": "IDAHO", "NAME": "Pine Street Ski Area", "TYPE": "Both" }, "geometry": { "type": "Point", "coordinates": [ -116.62578, 48.28348 ] } },
{ "type": "Feature", "properties": { "STATE": "IDAHO", "NAME": "Pomerelle Ski Area", "TYPE": "Both" }, "geometry": { "type": "Point", "coordinates": [ -113.61197, 42.31213 ] } },
{ "type": "Feature", "properties": { "STATE": "IDAHO", "NAME": "Schweitzer Basin Ski Area", "TYPE": "Both" }, "geometry": { "type": "Point", "coordinates": [ -116.61328, 48.38654 ] } },
{ "type": "Feature", "properties": { "STATE": "IDAHO", "NAME": "Silverhorn Ski Area", "TYPE": "Both" }, "geometry": { "type": "Point", "coordinates": [ -116.13714, 47.48959 ] } },
{ "type": "Feature", "properties": { "STATE": "IDAHO", "NAME": "Snow Haven Ski Area", "TYPE": "Both" }, "geometry": { "type": "Point", "coordinates": [ -116.09127, 45.86904 ] } },
{ "type": "Feature", "properties": { "STATE": "IDAHO", "NAME": "Taylor Mountain Ski Area", "TYPE": "Both" }, "geometry": { "type": "Point", "coordinates": [ -111.93082, 43.32548 ] } },
{ "type": "Feature", "properties": { "STATE": "ILLINOIS", "NAME": "Chestnut Mountain", "TYPE": "Both" }, "geometry": { "type": "Point", "coordinates": [ -90.42889, 42.41667 ] } },
{ "type": "Feature", "properties": { "STATE": "ILLINOIS", "NAME": "Four Lakes Village", "TYPE": "Both" }, "geometry": { "type": "Point", "coordinates": [ -88.07472, 41.80111 ] } },
{ "type": "Feature", "properties": { "STATE": "ILLINOIS", "NAME": "Raging Buffalo Snowboard Park", "TYPE": "Both" }, "geometry": { "type": "Point", "coordinates": [ -88.29417, 42.16556 ] } },
{ "type": "Feature", "properties": { "STATE": "ILLINOIS", "NAME": "Ski Snow Star", "TYPE": "Both" }, "geometry": { "type": "Point", "coordinates": [ -90.66806, 41.38667 ] } },
{ "type": "Feature", "properties": { "STATE": "ILLINOIS", "NAME": "Villa Olivia Ski Area", "TYPE": "Both" }, "geometry": { "type": "Point", "coordinates": [ -88.22, 42.0125 ] } },
{ "type": "Feature", "properties": { "STATE": "INDIANA", "NAME": "Paoli Peaks Ski Area", "TYPE": "Both" }, "geometry": { "type": "Point", "coordinates": [ -86.46833, 38.55611 ] } },
{ "type": "Feature", "properties": { "STATE": "INDIANA", "NAME": "Perfect North Ski Area", "TYPE": "Both" }, "geometry": { "type": "Point", "coordinates": [ -84.85, 39.09083 ] } },
{ "type": "Feature", "properties": { "STATE": "INDIANA", "NAME": "Pines Peak Ski Area", "TYPE": "Both" }, "geometry": { "type": "Point", "coordinates": [ -87.06111, 41.47306 ] } },
{ "type": "Feature", "properties": { "STATE": "INDIANA", "NAME": "Ski World", "TYPE": "Both" }, "geometry": { "type": "Point", "coordinates": [ -86.25111, 39.20722 ] } },
{ "type": "Feature", "properties": { "STATE": "IOWA", "NAME": "Fun Valley Ski Area", "TYPE": "Both" }, "geometry": { "type": "Point", "coordinates": [ -92.58194, 41.56667 ] } },
{ "type": "Feature", "properties": { "STATE": "IOWA", "NAME": "Mt. Crescent Ski Area", "TYPE": "Both" }, "geometry": { "type": "Point", "coordinates": [ -95.86389, 41.39333 ] } },
{ "type": "Feature", "properties": { "STATE": "IOWA", "NAME": "Nor-Ski Runs Ski Area", "TYPE": "Both" }, "geometry": { "type": "Point", "coordinates": [ -91.81389, 43.325 ] } },
{ "type": "Feature", "properties": { "STATE": "IOWA", "NAME": "Riverside Hills Ski Area", "TYPE": "Both" }, "geometry": { "type": "Point", "coordinates": [ -94.83333, 43.3875 ] } },
{ "type": "Feature", "properties": { "STATE": "IOWA", "NAME": "Seven Oaks Ski Area", "TYPE": "Both" }, "geometry": { "type": "Point", "coordinates": [ -93.88, 42.05972 ] } },
{ "type": "Feature", "properties": { "STATE": "MAINE", "NAME": "Big Squaw Ski Area", "TYPE": "Both" }, "geometry": { "type": "Point", "coordinates": [ -69.71167, 45.48417 ] } },
{ "type": "Feature", "properties": { "STATE": "MAINE", "NAME": "Bigrock-Mars Hill Ski Area", "TYPE": "Both" }, "geometry": { "type": "Point", "coordinates": [ -67.81417, 46.52139 ] } },
{ "type": "Feature", "properties": { "STATE": "MAINE", "NAME": "Black Mountain Ski Area", "TYPE": "Both" }, "geometry": { "type": "Point", "coordinates": [ -70.6375, 44.58472 ] } },
{ "type": "Feature", "properties": { "STATE": "MAINE", "NAME": "Camden Snow Bowl", "TYPE": "Both" }, "geometry": { "type": "Point", "coordinates": [ -69.06528, 44.20972 ] } },
{ "type": "Feature", "properties": { "STATE": "MAINE", "NAME": "Eaton Mountain Ski Area", "TYPE": "Both" }, "geometry": { "type": "Point", "coordinates": [ -69.62556, 44.76528 ] } },
{ "type": "Feature", "properties": { "STATE": "MAINE", "NAME": "Lost Valley Ski Area", "TYPE": "Both" }, "geometry": { "type": "Point", "coordinates": [ -70.28056, 44.13611 ] } },
{ "type": "Feature", "properties": { "STATE": "MAINE", "NAME": "Mt. Abram Ski Area", "TYPE": "Both" }, "geometry": { "type": "Point", "coordinates": [ -70.7025, 44.4 ] } },
{ "type": "Feature", "properties": { "STATE": "MAINE", "NAME": "Mt. Jefferson Ski Area", "TYPE": "Both" }, "geometry": { "type": "Point", "coordinates": [ -68.28472, 45.36389 ] } },
{ "type": "Feature", "properties": { "STATE": "MAINE", "NAME": "New Hermon Mountain Ski Area", "TYPE": "Both" }, "geometry": { "type": "Point", "coordinates": [ -68.87417, 44.84222 ] } },
{ "type": "Feature", "properties": { "STATE": "MAINE", "NAME": "Saddleback Mountain Ski Area", "TYPE": "Both" }, "geometry": { "type": "Point", "coordinates": [ -70.52778, 44.94722 ] } },
{ "type": "Feature", "properties": { "STATE": "MAINE", "NAME": "Shawneepeak Ski Area", "TYPE": "Both" }, "geometry": { "type": "Point", "coordinates": [ -70.71333, 44.05472 ] } },
{ "type": "Feature", "properties": { "STATE": "MAINE", "NAME": "Spruce Mountain Ski Area", "TYPE": "Both" }, "geometry": { "type": "Point", "coordinates": [ -70.20056, 44.55639 ] } },
{ "type": "Feature", "properties": { "STATE": "MAINE", "NAME": "Sugarloaf Ski Area", "TYPE": "Both" }, "geometry": { "type": "Point", "coordinates": [ -70.27389, 45.06611 ] } },
{ "type": "Feature", "properties": { "STATE": "MAINE", "NAME": "Sunday River Ski Area", "TYPE": "Both" }, "geometry": { "type": "Point", "coordinates": [ -70.86389, 44.46556 ] } },
{ "type": "Feature", "properties": { "STATE": "MAINE", "NAME": "Titcomb Ski Area", "TYPE": "Both" }, "geometry": { "type": "Point", "coordinates": [ -70.17167, 44.64861 ] } },
{ "type": "Feature", "properties": { "STATE": "MARYLAND", "NAME": "Wisp - McHenry Ski Area", "TYPE": "Both" }, "geometry": { "type": "Point", "coordinates": [ -79.35306, 39.55833 ] } },
{ "type": "Feature", "properties": { "STATE": "MASSACHUSETTS", "NAME": "Atlantic Forest Ski Area", "TYPE": "Both" }, "geometry": { "type": "Point", "coordinates": [ -70.93472, 42.86833 ] } },
{ "type": "Feature", "properties": { "STATE": "MASSACHUSETTS", "NAME": "Berkshire Show Basin Ski Area", "TYPE": "Both" }, "geometry": { "type": "Point", "coordinates": [ -72.48722, 42.48722 ] } },
{ "type": "Feature", "properties": { "STATE": "MASSACHUSETTS", "NAME": "Blandford Ski Area", "TYPE": "Both" }, "geometry": { "type": "Point", "coordinates": [ -72.9175, 42.19556 ] } },
{ "type": "Feature", "properties": { "STATE": "MASSACHUSETTS", "NAME": "Blue Hills Ski Area", "TYPE": "Both" }, "geometry": { "type": "Point", "coordinates": [ -71.09861, 42.24306 ] } },
{ "type": "Feature", "properties": { "STATE": "MASSACHUSETTS", "NAME": "Boston Hill Ski Area", "TYPE": "Both" }, "geometry": { "type": "Point", "coordinates": [ -71.09472, 42.64917 ] } },
{ "type": "Feature", "properties": { "STATE": "MASSACHUSETTS", "NAME": "Bousquet Ski Area", "TYPE": "Both" }, "geometry": { "type": "Point", "coordinates": [ -73.27972, 42.41611 ] } },
{ "type": "Feature", "properties": { "STATE": "MASSACHUSETTS", "NAME": "Bradford Ski Area", "TYPE": "Both" }, "geometry": { "type": "Point", "coordinates": [ -71.05944, 42.74361 ] } },
{ "type": "Feature", "properties": { "STATE": "MASSACHUSETTS", "NAME": "Brodie Mountain Ski Area", "TYPE": "Both" }, "geometry": { "type": "Point", "coordinates": [ -73.26278, 42.59528 ] } },
{ "type": "Feature", "properties": { "STATE": "MASSACHUSETTS", "NAME": "Bucksteep Cross-Country Ski Area", "TYPE": "Alpine" }, "geometry": { "type": "Point", "coordinates": [ -73.13417, 42.35944 ] } },
{ "type": "Feature", "properties": { "STATE": "MASSACHUSETTS", "NAME": "Butternut Basin Ski Area", "TYPE": "Both" }, "geometry": { "type": "Point", "coordinates": [ -73.31472, 42.17028 ] } },
{ "type": "Feature", "properties": { "STATE": "MASSACHUSETTS", "NAME": "Catamount Ski Area", "TYPE": "Both" }, "geometry": { "type": "Point", "coordinates": [ -73.25944, 42.42722 ] } },
{ "type": "Feature", "properties": { "STATE": "MASSACHUSETTS", "NAME": "Charlemont Ski Area", "TYPE": "Both" }, "geometry": { "type": "Point", "coordinates": [ -72.87028, 42.62778 ] } },
{ "type": "Feature", "properties": { "STATE": "MASSACHUSETTS", "NAME": "Cherry Hill Cross Country Ski Center", "TYPE": "Alpine" }, "geometry": { "type": "Point", "coordinates": [ -72.52111, 42.41944 ] } },
{ "type": "Feature", "properties": { "STATE": "MASSACHUSETTS", "NAME": "East Mountain Ski Touring Center", "TYPE": "Alpine" }, "geometry": { "type": "Point", "coordinates": [ -72.69278, 42.15861 ] } },
{ "type": "Feature", "properties": { "STATE": "MASSACHUSETTS", "NAME": "Groton Hills Ski Area", "TYPE": "Both" }, "geometry": { "type": "Point", "coordinates": [ -71.54111, 42.62306 ] } },
{ "type": "Feature", "properties": { "STATE": "MASSACHUSETTS", "NAME": "Jericho Hill Ski Slope", "TYPE": "Both" }, "geometry": { "type": "Point", "coordinates": [ -71.55972, 42.32917 ] } },
{ "type": "Feature", "properties": { "STATE": "MASSACHUSETTS", "NAME": "Jiminy Peak Ski Area", "TYPE": "Both" }, "geometry": { "type": "Point", "coordinates": [ -73.29139, 42.55083 ] } },
{ "type": "Feature", "properties": { "STATE": "MASSACHUSETTS", "NAME": "Klein-Innsbruck Ski Area", "TYPE": "Both" }, "geometry": { "type": "Point", "coordinates": [ -71.39722, 42.08333 ] } },
{ "type": "Feature", "properties": { "STATE": "MASSACHUSETTS", "NAME": "Mount Greylock Ski Club", "TYPE": "Both" }, "geometry": { "type": "Point", "coordinates": [ -73.21583, 42.63306 ] } },
{ "type": "Feature", "properties": { "STATE": "MASSACHUSETTS", "NAME": "Mount Tom Ski and Recreation Area", "TYPE": "Alpine" }, "geometry": { "type": "Point", "coordinates": [ -72.63333, 42.24861 ] } },
{ "type": "Feature", "properties": { "STATE": "MASSACHUSETTS", "NAME": "Nashoba Valley Ski Area", "TYPE": "Both" }, "geometry": { "type": "Point", "coordinates": [ -71.46611, 42.54417 ] } },
{ "type": "Feature", "properties": { "STATE": "MASSACHUSETTS", "NAME": "Otis Ridge Ski Area", "TYPE": "Both" }, "geometry": { "type": "Point", "coordinates": [ -73.1, 42.19583 ] } },
{ "type": "Feature", "properties": { "STATE": "MASSACHUSETTS", "NAME": "Pine Ridge Ski Area", "TYPE": "Both" }, "geometry": { "type": "Point", "coordinates": [ -72.10556, 42.40194 ] } },
{ "type": "Feature", "properties": { "STATE": "MASSACHUSETTS", "NAME": "Prospect Hill Ski Area", "TYPE": "Both" }, "geometry": { "type": "Point", "coordinates": [ -71.25056, 42.39444 ] } },
{ "type": "Feature", "properties": { "STATE": "MASSACHUSETTS", "NAME": "Sodom Mountain Ski Area", "TYPE": "Both" }, "geometry": { "type": "Point", "coordinates": [ -72.81833, 42.07861 ] } },
{ "type": "Feature", "properties": { "STATE": "MASSACHUSETTS", "NAME": "Stony Ledge Ski Trail", "TYPE": "Alpine" }, "geometry": { "type": "Point", "coordinates": [ -73.20778, 42.64417 ] } },
{ "type": "Feature", "properties": { "STATE": "MASSACHUSETTS", "NAME": "Thunderbolt Ski Trail", "TYPE": "Alpine" }, "geometry": { "type": "Point", "coordinates": [ -73.1525, 42.6375 ] } },
{ "type": "Feature", "properties": { "STATE": "MASSACHUSETTS", "NAME": "Wachusett Mountain Ski Area", "TYPE": "Both" }, "geometry": { "type": "Point", "coordinates": [ -71.88694, 42.49944 ] } },
{ "type": "Feature", "properties": { "STATE": "MASSACHUSETTS", "NAME": "Ward Hill Ski Area", "TYPE": "Both" }, "geometry": { "type": "Point", "coordinates": [ -71.71333, 42.29583 ] } },
{ "type": "Feature", "properties": { "STATE": "MASSACHUSETTS", "NAME": "Weston XC Ski Trail", "TYPE": "Alpine" }, "geometry": { "type": "Point", "coordinates": [ -71.30361, 42.36667 ] } },
{ "type": "Feature", "properties": { "STATE": "MASSACHUSETTS", "NAME": "Williams College Ski Area", "TYPE": "Both" }, "geometry": { "type": "Point", "coordinates": [ -73.27972, 42.70083 ] } },
{ "type": "Feature", "properties": { "STATE": "MICHIGAN", "NAME": "ABR Cross Country Ski", "TYPE": "Alpine" }, "geometry": { "type": "Point", "coordinates": [ -90.17083, 46.45472 ] } },
{ "type": "Feature", "properties": { "STATE": "MICHIGAN", "NAME": "Addis Lakes Ski Trail", "TYPE": "Alpine" }, "geometry": { "type": "Point", "coordinates": [ -86.80806, 46.34444 ] } },
{ "type": "Feature", "properties": { "STATE": "MICHIGAN", "NAME": "Alpine Valley Ski Area", "TYPE": "Both" }, "geometry": { "type": "Point", "coordinates": [ -83.55417, 42.69167 ] } },
{ "type": "Feature", "properties": { "STATE": "MICHIGAN", "NAME": "Alquaal - Ishpeming Ski Area", "TYPE": "Both" }, "geometry": { "type": "Point", "coordinates": [ -87.6675, 46.48861 ] } },
{ "type": "Feature", "properties": { "STATE": "MICHIGAN", "NAME": "Apple Mountain Ski Area", "TYPE": "Both" }, "geometry": { "type": "Point", "coordinates": [ -84.1075, 43.47056 ] } },
{ "type": "Feature", "properties": { "STATE": "MICHIGAN", "NAME": "Big Powderhorn Mt. Ski Area", "TYPE": "Both" }, "geometry": { "type": "Point", "coordinates": [ -90.05278, 46.48139 ] } },
{ "type": "Feature", "properties": { "STATE": "MICHIGAN", "NAME": "Bittersweet Ski Area", "TYPE": "Both" }, "geometry": { "type": "Point", "coordinates": [ -85.69639, 42.46056 ] } },
{ "type": "Feature", "properties": { "STATE": "MICHIGAN", "NAME": "Blackjack Ski Area", "TYPE": "Both" }, "geometry": { "type": "Point", "coordinates": [ -90.05278, 46.48139 ] } },
{ "type": "Feature", "properties": { "STATE": "MICHIGAN", "NAME": "Boyne Highlands Ski Area", "TYPE": "Both" }, "geometry": { "type": "Point", "coordinates": [ -84.92222, 45.46861 ] } },
{ "type": "Feature", "properties": { "STATE": "MICHIGAN", "NAME": "Boyne Mountain Ski Area", "TYPE": "Both" }, "geometry": { "type": "Point", "coordinates": [ -84.93889, 45.15861 ] } },
{ "type": "Feature", "properties": { "STATE": "MICHIGAN", "NAME": "Briar Hill Ski Jump", "TYPE": "Both" }, "geometry": { "type": "Point", "coordinates": [ -85.66667, 44.39861 ] } },
{ "type": "Feature", "properties": { "STATE": "MICHIGAN", "NAME": "Brule Mountain Ski Area", "TYPE": "Both" }, "geometry": { "type": "Point", "coordinates": [ -88.70694, 46.02917 ] } },
{ "type": "Feature", "properties": { "STATE": "MICHIGAN", "NAME": "Caberfae Peaks Ski Area", "TYPE": "Both" }, "geometry": { "type": "Point", "coordinates": [ -85.69944, 44.2225 ] } },
{ "type": "Feature", "properties": { "STATE": "MICHIGAN", "NAME": "Cannonsburg Ski Area", "TYPE": "Both" }, "geometry": { "type": "Point", "coordinates": [ -85.46972, 43.05389 ] } },
{ "type": "Feature", "properties": { "STATE": "MICHIGAN", "NAME": "Chatham Hill Ski Area", "TYPE": "Both" }, "geometry": { "type": "Point", "coordinates": [ -86.88667, 46.35694 ] } },
{ "type": "Feature", "properties": { "STATE": "MICHIGAN", "NAME": "Chatham Ski Trail", "TYPE": "Alpine" }, "geometry": { "type": "Point", "coordinates": [ -86.89194, 46.36139 ] } },
{ "type": "Feature", "properties": { "STATE": "MICHIGAN", "NAME": "Crystal Mountain Ski Area", "TYPE": "Both" }, "geometry": { "type": "Point", "coordinates": [ -85.99167, 44.51972 ] } },
{ "type": "Feature", "properties": { "STATE": "MICHIGAN", "NAME": "Gladstone Ski Park", "TYPE": "Both" }, "geometry": { "type": "Point", "coordinates": [ -87.02889, 45.89472 ] } },
{ "type": "Feature", "properties": { "STATE": "MICHIGAN", "NAME": "Hanson Hills Ski Area", "TYPE": "Both" }, "geometry": { "type": "Point", "coordinates": [ -84.75528, 44.64444 ] } },
{ "type": "Feature", "properties": { "STATE": "MICHIGAN", "NAME": "Harbor Highlands Ski Club", "TYPE": "Both" }, "geometry": { "type": "Point", "coordinates": [ -84.93583, 45.46778 ] } },
{ "type": "Feature", "properties": { "STATE": "MICHIGAN", "NAME": "Hickory Hills Ski Area", "TYPE": "Both" }, "geometry": { "type": "Point", "coordinates": [ -85.62056, 44.76306 ] } },
{ "type": "Feature", "properties": { "STATE": "MICHIGAN", "NAME": "Hidden Valley Resort", "TYPE": "Both" }, "geometry": { "type": "Point", "coordinates": [ -84.65222, 45.03194 ] } },
{ "type": "Feature", "properties": { "STATE": "MICHIGAN", "NAME": "Homestead Ski Area", "TYPE": "Both" }, "geometry": { "type": "Point", "coordinates": [ -85.98528, 44.8975 ] } },
{ "type": "Feature", "properties": { "STATE": "MICHIGAN", "NAME": "Hungerford Cross Country Ski Trail", "TYPE": "Alpine" }, "geometry": { "type": "Point", "coordinates": [ -85.62722, 43.71306 ] } },
{ "type": "Feature", "properties": { "STATE": "MICHIGAN", "NAME": "Indianhead Mountain Ski Area", "TYPE": "Both" }, "geometry": { "type": "Point", "coordinates": [ -89.93972, 46.47528 ] } },
{ "type": "Feature", "properties": { "STATE": "MICHIGAN", "NAME": "Iroquois Mountain Ski Area", "TYPE": "Both" }, "geometry": { "type": "Point", "coordinates": [ -84.68611, 46.4775 ] } },
{ "type": "Feature", "properties": { "STATE": "MICHIGAN", "NAME": "Maple Mountain Ski Area", "TYPE": "Both" }, "geometry": { "type": "Point", "coordinates": [ -86.65333, 46.40278 ] } },
{ "type": "Feature", "properties": { "STATE": "MICHIGAN", "NAME": "Marquette Mountain Ski Area", "TYPE": "Both" }, "geometry": { "type": "Point", "coordinates": [ -87.39528, 46.54361 ] } },
{ "type": "Feature", "properties": { "STATE": "MICHIGAN", "NAME": "McKenzie Ski Trial", "TYPE": "Alpine" }, "geometry": { "type": "Point", "coordinates": [ -85.72917, 44.23889 ] } },
{ "type": "Feature", "properties": { "STATE": "MICHIGAN", "NAME": "Mio Mountain Ski Area", "TYPE": "Both" }, "geometry": { "type": "Point", "coordinates": [ -84.14, 44.63778 ] } },
{ "type": "Feature", "properties": { "STATE": "MICHIGAN", "NAME": "Missaukee Mountain Ski Area", "TYPE": "Both" }, "geometry": { "type": "Point", "coordinates": [ -85.215, 44.33528 ] } },
{ "type": "Feature", "properties": { "STATE": "MICHIGAN", "NAME": "Mont Ripley Ski Area", "TYPE": "Both" }, "geometry": { "type": "Point", "coordinates": [ -88.56889, 47.12194 ] } },
{ "type": "Feature", "properties": { "STATE": "MICHIGAN", "NAME": "Mount Brighton Ski Area", "TYPE": "Both" }, "geometry": { "type": "Point", "coordinates": [ -83.80694, 42.53806 ] } },
{ "type": "Feature", "properties": { "STATE": "MICHIGAN", "NAME": "Mt. Holiday Ski Area", "TYPE": "Both" }, "geometry": { "type": "Point", "coordinates": [ -85.62056, 44.76306 ] } },
{ "type": "Feature", "properties": { "STATE": "MICHIGAN", "NAME": "Mt. Holly Ski Area", "TYPE": "Both" }, "geometry": { "type": "Point", "coordinates": [ -83.56722, 42.82806 ] } },
{ "type": "Feature", "properties": { "STATE": "MICHIGAN", "NAME": "Mt. Mcsauba Ski Area", "TYPE": "Both" }, "geometry": { "type": "Point", "coordinates": [ -85.24528, 45.33417 ] } },
{ "type": "Feature", "properties": { "STATE": "MICHIGAN", "NAME": "Mt. Zion Ski Area", "TYPE": "Both" }, "geometry": { "type": "Point", "coordinates": [ -90.16778, 46.47722 ] } },
{ "type": "Feature", "properties": { "STATE": "MICHIGAN", "NAME": "Mulligans Ski Area", "TYPE": "Both" }, "geometry": { "type": "Point", "coordinates": [ -86.24, 43.05694 ] } },
{ "type": "Feature", "properties": { "STATE": "MICHIGAN", "NAME": "Norway Mountain Ski Area", "TYPE": "Alpine" }, "geometry": { "type": "Point", "coordinates": [ -87.90361, 45.78694 ] } },
{ "type": "Feature", "properties": { "STATE": "MICHIGAN", "NAME": "Nubs Nob Ski Area", "TYPE": "Both" }, "geometry": { "type": "Point", "coordinates": [ -84.90361, 45.46833 ] } },
{ "type": "Feature", "properties": { "STATE": "MICHIGAN", "NAME": "Pando Ski Area", "TYPE": "Both" }, "geometry": { "type": "Point", "coordinates": [ -85.56, 43.12 ] } },
{ "type": "Feature", "properties": { "STATE": "MICHIGAN", "NAME": "Petoskey Ski Area", "TYPE": "Both" }, "geometry": { "type": "Point", "coordinates": [ -84.95528, 45.37333 ] } },
{ "type": "Feature", "properties": { "STATE": "MICHIGAN", "NAME": "Pine Knob Ski Area", "TYPE": "Both" }, "geometry": { "type": "Point", "coordinates": [ -83.36722, 42.74222 ] } },
{ "type": "Feature", "properties": { "STATE": "MICHIGAN", "NAME": "Pine Mountain Ski Area", "TYPE": "Both" }, "geometry": { "type": "Point", "coordinates": [ -88.08194, 45.83306 ] } },
{ "type": "Feature", "properties": { "STATE": "MICHIGAN", "NAME": "Pioneer Ski Hill", "TYPE": "Both" }, "geometry": { "type": "Point", "coordinates": [ -84.66833, 44.49694 ] } },
{ "type": "Feature", "properties": { "STATE": "MICHIGAN", "NAME": "Porcupine Ski Area", "TYPE": "Both" }, "geometry": { "type": "Point", "coordinates": [ -89.85, 46.68917 ] } },
{ "type": "Feature", "properties": { "STATE": "MICHIGAN", "NAME": "Shanty Creek Ski Area", "TYPE": "Both" }, "geometry": { "type": "Point", "coordinates": [ -85.20917, 44.92806 ] } },
{ "type": "Feature", "properties": { "STATE": "MICHIGAN", "NAME": "Sheridan Valley Ski Area", "TYPE": "Both" }, "geometry": { "type": "Point", "coordinates": [ -84.24167, 44.92444 ] } },
{ "type": "Feature", "properties": { "STATE": "MICHIGAN", "NAME": "Skyline Ski Slide", "TYPE": "Both" }, "geometry": { "type": "Point", "coordinates": [ -84.69083, 44.57389 ] } },
{ "type": "Feature", "properties": { "STATE": "MICHIGAN", "NAME": "Snow Snake Mt. Ski Area", "TYPE": "Both" }, "geometry": { "type": "Point", "coordinates": [ -84.79944, 44.01917 ] } },
{ "type": "Feature", "properties": { "STATE": "MICHIGAN", "NAME": "Snow Valley Ski Club", "TYPE": "Both" }, "geometry": { "type": "Point", "coordinates": [ -84.71028, 44.95889 ] } },
{ "type": "Feature", "properties": { "STATE": "MICHIGAN", "NAME": "Sugar Loaf Ski Area", "TYPE": "Both" }, "geometry": { "type": "Point", "coordinates": [ -85.81917, 44.91306 ] } },
{ "type": "Feature", "properties": { "STATE": "MICHIGAN", "NAME": "Summit Ski Club", "TYPE": "Both" }, "geometry": { "type": "Point", "coordinates": [ -83.72944, 42.74667 ] } },
{ "type": "Feature", "properties": { "STATE": "MICHIGAN", "NAME": "Swiss Valley Ski Area", "TYPE": "Both" }, "geometry": { "type": "Point", "coordinates": [ -85.79944, 41.9025 ] } },
{ "type": "Feature", "properties": { "STATE": "MICHIGAN", "NAME": "Timber Ridge Ski Area", "TYPE": "Both" }, "geometry": { "type": "Point", "coordinates": [ -85.87944, 42.36083 ] } },
{ "type": "Feature", "properties": { "STATE": "MICHIGAN", "NAME": "Tree Tops Sylvan Ski Area", "TYPE": "Both" }, "geometry": { "type": "Point", "coordinates": [ -84.67472, 45.0275 ] } },
{ "type": "Feature", "properties": { "STATE": "MICHIGAN", "NAME": "Valley Spur Ski Trail", "TYPE": "Alpine" }, "geometry": { "type": "Point", "coordinates": [ -86.69944, 46.36306 ] } },
{ "type": "Feature", "properties": { "STATE": "MINNESOTA", "NAME": "Afton Alps Ski Area", "TYPE": "Both" }, "geometry": { "type": "Point", "coordinates": [ -92.85222, 44.74333 ] } },
{ "type": "Feature", "properties": { "STATE": "MINNESOTA", "NAME": "Andes Tower Hills Ski Area", "TYPE": "Both" }, "geometry": { "type": "Point", "coordinates": [ -95.69583, 45.77806 ] } },
{ "type": "Feature", "properties": { "STATE": "MINNESOTA", "NAME": "Blue Fin XC Area", "TYPE": "Cross-Country" }, "geometry": { "type": "Point", "coordinates": [ -92.93722, 48.46333 ] } },
{ "type": "Feature", "properties": { "STATE": "MINNESOTA", "NAME": "Buck Hill Ski Area", "TYPE": "Both" }, "geometry": { "type": "Point", "coordinates": [ -93.28694, 44.72306 ] } },
{ "type": "Feature", "properties": { "STATE": "MINNESOTA", "NAME": "Buena Vista Ski Area", "TYPE": "Both" }, "geometry": { "type": "Point", "coordinates": [ -94.87778, 47.65833 ] } },
{ "type": "Feature", "properties": { "STATE": "MINNESOTA", "NAME": "Cascade Lodge XC Trail", "TYPE": "Cross-Country" }, "geometry": { "type": "Point", "coordinates": [ -90.71222, 47.66417 ] } },
{ "type": "Feature", "properties": { "STATE": "MINNESOTA", "NAME": "Chester Bowl Ski Area", "TYPE": "Both" }, "geometry": { "type": "Point", "coordinates": [ -92.10639, 46.78333 ] } },
{ "type": "Feature", "properties": { "STATE": "MINNESOTA", "NAME": "Coffee Mill Ski Area", "TYPE": "Both" }, "geometry": { "type": "Point", "coordinates": [ -92.08306, 44.36889 ] } },
{ "type": "Feature", "properties": { "STATE": "MINNESOTA", "NAME": "Detroit Mountain Ski Area", "TYPE": "Both" }, "geometry": { "type": "Point", "coordinates": [ -95.78306, 46.81639 ] } },
{ "type": "Feature", "properties": { "STATE": "MINNESOTA", "NAME": "Giants Ridge Ski Area", "TYPE": "Both" }, "geometry": { "type": "Point", "coordinates": [ -92.30056, 47.57556 ] } },
{ "type": "Feature", "properties": { "STATE": "MINNESOTA", "NAME": "Hyland Hills Ski Area", "TYPE": "Both" }, "geometry": { "type": "Point", "coordinates": [ -93.37111, 44.83056 ] } },
{ "type": "Feature", "properties": { "STATE": "MINNESOTA", "NAME": "Lutsen Mountains Ski Area", "TYPE": "Both" }, "geometry": { "type": "Point", "coordinates": [ -90.71222, 47.66417 ] } },
{ "type": "Feature", "properties": { "STATE": "MINNESOTA", "NAME": "Mount Frontenac Ski Area", "TYPE": "Both" }, "geometry": { "type": "Point", "coordinates": [ -92.35639, 44.51111 ] } },
{ "type": "Feature", "properties": { "STATE": "MINNESOTA", "NAME": "Mount Kato Ski Area", "TYPE": "Both" }, "geometry": { "type": "Point", "coordinates": [ -93.99917, 44.16361 ] } },
{ "type": "Feature", "properties": { "STATE": "MINNESOTA", "NAME": "Powder Ridge Ski Area", "TYPE": "Both" }, "geometry": { "type": "Point", "coordinates": [ -94.3, 45.3125 ] } },
{ "type": "Feature", "properties": { "STATE": "MINNESOTA", "NAME": "Quadna Mountain Ski Area", "TYPE": "Both" }, "geometry": { "type": "Point", "coordinates": [ -93.58667, 46.96306 ] } },
{ "type": "Feature", "properties": { "STATE": "MINNESOTA", "NAME": "Rainbow Resort XC Trail", "TYPE": "Cross-Country" }, "geometry": { "type": "Point", "coordinates": [ -95.93889, 47.18056 ] } },
{ "type": "Feature", "properties": { "STATE": "MINNESOTA", "NAME": "Shingobee Ski Area", "TYPE": "Both" }, "geometry": { "type": "Point", "coordinates": [ -94.6425, 47.03528 ] } },
{ "type": "Feature", "properties": { "STATE": "MINNESOTA", "NAME": "Ski Gull Ski Area", "TYPE": "Both" }, "geometry": { "type": "Point", "coordinates": [ -94.20056, 46.35806 ] } },
{ "type": "Feature", "properties": { "STATE": "MINNESOTA", "NAME": "Spirit Mountain Ski Area", "TYPE": "Both" }, "geometry": { "type": "Point", "coordinates": [ -92.10639, 46.78333 ] } },
{ "type": "Feature", "properties": { "STATE": "MINNESOTA", "NAME": "Welch Village Ski Area", "TYPE": "Both" }, "geometry": { "type": "Point", "coordinates": [ -92.73833, 44.56833 ] } },
{ "type": "Feature", "properties": { "STATE": "MINNESOTA", "NAME": "Wild Mountain Ski Area", "TYPE": "Both" }, "geometry": { "type": "Point", "coordinates": [ -92.71306, 45.48694 ] } },
{ "type": "Feature", "properties": { "STATE": "MISSOURI", "NAME": "Hidden Valley Ski Area", "TYPE": "Both" }, "geometry": { "type": "Point", "coordinates": [ -90.62778, 38.5025 ] } },
{ "type": "Feature", "properties": { "STATE": "MISSOURI", "NAME": "Snow Bluff Ski Area", "TYPE": "Both" }, "geometry": { "type": "Point", "coordinates": [ -93.34778, 37.45778 ] } },
{ "type": "Feature", "properties": { "STATE": "MISSOURI", "NAME": "Snow Creek Ski Area", "TYPE": "Both" }, "geometry": { "type": "Point", "coordinates": [ -90.3525, 36.96639 ] } },
{ "type": "Feature", "properties": { "STATE": "MONTANA", "NAME": "Africa Ski Trail", "TYPE": "Alpine" }, "geometry": { "type": "Point", "coordinates": [ -111.40583, 45.28083 ] } },
{ "type": "Feature", "properties": { "STATE": "MONTANA", "NAME": "Alpine Access Ski Trail", "TYPE": "Alpine" }, "geometry": { "type": "Point", "coordinates": [ -110.89583, 45.81722 ] } },
{ "type": "Feature", "properties": { "STATE": "MONTANA", "NAME": "Alpinglow Alley Ski Trail", "TYPE": "Alpine" }, "geometry": { "type": "Point", "coordinates": [ -114.35278, 48.485 ] } },
{ "type": "Feature", "properties": { "STATE": "MONTANA", "NAME": "Arkansas Traveller Ski Trail", "TYPE": "Alpine" }, "geometry": { "type": "Point", "coordinates": [ -110.70806, 46.83861 ] } },
{ "type": "Feature", "properties": { "STATE": "MONTANA", "NAME": "Atlantic Cable Ski Trail", "TYPE": "Alpine" }, "geometry": { "type": "Point", "coordinates": [ -113.24111, 46.25639 ] } },
{ "type": "Feature", "properties": { "STATE": "MONTANA", "NAME": "Auto Bahn Ski Trail", "TYPE": "Alpine" }, "geometry": { "type": "Point", "coordinates": [ -109.35, 45.1875 ] } },
{ "type": "Feature", "properties": { "STATE": "MONTANA", "NAME": "B-2 Ski Trail", "TYPE": "Alpine" }, "geometry": { "type": "Point", "coordinates": [ -113.95139, 45.69306 ] } },
{ "type": "Feature", "properties": { "STATE": "MONTANA", "NAME": "Bear Canyon Ski Lodge", "TYPE": "Both" }, "geometry": { "type": "Point", "coordinates": [ -110.92194, 45.60694 ] } },
{ "type": "Feature", "properties": { "STATE": "MONTANA", "NAME": "Bear Paw Ski Bowl", "TYPE": "Both" }, "geometry": { "type": "Point", "coordinates": [ -109.63333, 48.17778 ] } },
{ "type": "Feature", "properties": { "STATE": "MONTANA", "NAME": "Big Sky Ski Area", "TYPE": "Both" }, "geometry": { "type": "Point", "coordinates": [ -111.40583, 45.28074 ] } },
{ "type": "Feature", "properties": { "STATE": "MONTANA", "NAME": "Big Sky Ski Trail", "TYPE": "Alpine" }, "geometry": { "type": "Point", "coordinates": [ -113.99639, 47.02361 ] } },
{ "type": "Feature", "properties": { "STATE": "MONTANA", "NAME": "Blacktail Ski Area", "TYPE": "Both" }, "geometry": { "type": "Point", "coordinates": [ -114.3732, 48.01656 ] } },
{ "type": "Feature", "properties": { "STATE": "MONTANA", "NAME": "Bridger Bowl Ski Area", "TYPE": "Both" }, "geometry": { "type": "Point", "coordinates": [ -110.89666, 45.81713 ] } },
{ "type": "Feature", "properties": { "STATE": "MONTANA", "NAME": "Butte Ski Club", "TYPE": "Both" }, "geometry": { "type": "Point", "coordinates": [ -112.60056, 45.9525 ] } },
{ "type": "Feature", "properties": { "STATE": "MONTANA", "NAME": "Castle Hill Ski Area", "TYPE": "Both" }, "geometry": { "type": "Point", "coordinates": [ -109.38135, 46.9502 ] } },
{ "type": "Feature", "properties": { "STATE": "MONTANA", "NAME": "Deep Creek Ski Area", "TYPE": "Both" }, "geometry": { "type": "Point", "coordinates": [ -113.11396, 45.90407 ] } },
{ "type": "Feature", "properties": { "STATE": "MONTANA", "NAME": "Discovery Basin Ski Area", "TYPE": "Both" }, "geometry": { "type": "Point", "coordinates": [ -113.24202, 46.25629 ] } },
{ "type": "Feature", "properties": { "STATE": "MONTANA", "NAME": "Essex Cross Country Ski Area", "TYPE": "Cross-Country" }, "geometry": { "type": "Point", "coordinates": [ -113.62485, 48.27378 ] } },
{ "type": "Feature", "properties": { "STATE": "MONTANA", "NAME": "Foothills Cross Country Ski Area", "TYPE": "Alpine" }, "geometry": { "type": "Point", "coordinates": [ -113.99264, 48.14295 ] } },
{ "type": "Feature", "properties": { "STATE": "MONTANA", "NAME": "Foothills Cross-Country Ski Area", "TYPE": "Alpine" }, "geometry": { "type": "Point", "coordinates": [ -113.99875, 48.13961 ] } },
{ "type": "Feature", "properties": { "STATE": "MONTANA", "NAME": "Foy Lake Cross Country Ski Area", "TYPE": "Alpine" }, "geometry": { "type": "Point", "coordinates": [ -114.35515, 48.14878 ] } },
{ "type": "Feature", "properties": { "STATE": "MONTANA", "NAME": "Grass Mountain Ski Area", "TYPE": "Both" }, "geometry": { "type": "Point", "coordinates": [ -111.10667, 46.35602 ] } },
{ "type": "Feature", "properties": { "STATE": "MONTANA", "NAME": "Lakeview Mountain Ski Area", "TYPE": "Both" }, "geometry": { "type": "Point", "coordinates": [ -111.81362, 44.58991 ] } },
{ "type": "Feature", "properties": { "STATE": "MONTANA", "NAME": "Lionhead Ski Area", "TYPE": "Both" }, "geometry": { "type": "Point", "coordinates": [ -111.2911, 44.69548 ] } },
{ "type": "Feature", "properties": { "STATE": "MONTANA", "NAME": "Lubrecht Camp Ski Area", "TYPE": "Both" }, "geometry": { "type": "Point", "coordinates": [ -113.44815, 46.89545 ] } },
{ "type": "Feature", "properties": { "STATE": "MONTANA", "NAME": "Marshall Ski Area", "TYPE": "Both" }, "geometry": { "type": "Point", "coordinates": [ -113.90677, 46.91989 ] } },
{ "type": "Feature", "properties": { "STATE": "MONTANA", "NAME": "Maverick Mountain Ski Area", "TYPE": "Both" }, "geometry": { "type": "Point", "coordinates": [ -113.1295, 45.4349 ] } },
{ "type": "Feature", "properties": { "STATE": "MONTANA", "NAME": "Red Lodge Mountain Ski Area", "TYPE": "Both" }, "geometry": { "type": "Point", "coordinates": [ -109.35077, 45.19021 ] } },
{ "type": "Feature", "properties": { "STATE": "MONTANA", "NAME": "Rocky Mountain Hi Ski Area", "TYPE": "Both" }, "geometry": { "type": "Point", "coordinates": [ -112.75148, 47.79157 ] } },
{ "type": "Feature", "properties": { "STATE": "MONTANA", "NAME": "Round Meadow Country Ski Area", "TYPE": "Alpine" }, "geometry": { "type": "Point", "coordinates": [ -114.52905, 48.4585 ] } },
{ "type": "Feature", "properties": { "STATE": "MONTANA", "NAME": "Round Meadow Cross Country Ski Area", "TYPE": "Cross-Country" }, "geometry": { "type": "Point", "coordinates": [ -114.54127, 48.45822 ] } },
{ "type": "Feature", "properties": { "STATE": "MONTANA", "NAME": "Snow Bowl Ski Area", "TYPE": "Both" }, "geometry": { "type": "Point", "coordinates": [ -113.99734, 47.0235 ] } },
{ "type": "Feature", "properties": { "STATE": "MONTANA", "NAME": "Snow Park Ski Area", "TYPE": "Alpine" }, "geometry": { "type": "Point", "coordinates": [ -114.02956, 47.01433 ] } },
{ "type": "Feature", "properties": { "STATE": "MONTANA", "NAME": "Turner Mountain Ski Area", "TYPE": "Alpine" }, "geometry": { "type": "Point", "coordinates": [ -115.63047, 48.60488 ] } },
{ "type": "Feature", "properties": { "STATE": "MONTANA", "NAME": "Wraith Hill Ski Area", "TYPE": "Alpine" }, "geometry": { "type": "Point", "coordinates": [ -113.21174, 46.17184 ] } },
{ "type": "Feature", "properties": { "STATE": "MONTANA", "NAME": "Back Side of the Moon Ski Trail", "TYPE": "Alpine" }, "geometry": { "type": "Point", "coordinates": [ -115.62944, 48.605 ] } },
{ "type": "Feature", "properties": { "STATE": "NEVADA", "NAME": "Heavenly Valley Ski Area", "TYPE": "Both" }, "geometry": { "type": "Point", "coordinates": [ -119.90878, 38.93769 ] } },
{ "type": "Feature", "properties": { "STATE": "NEVADA", "NAME": "Incline Ski Area", "TYPE": "Both" }, "geometry": { "type": "Point", "coordinates": [ -119.9235, 39.25379 ] } },
{ "type": "Feature", "properties": { "STATE": "NEVADA", "NAME": "Lee Canyon Ski Area", "TYPE": "Both" }, "geometry": { "type": "Point", "coordinates": [ -115.67974, 36.3036 ] } },
{ "type": "Feature", "properties": { "STATE": "NEVADA", "NAME": "Mount Rose Ski Area", "TYPE": "Both" }, "geometry": { "type": "Point", "coordinates": [ -119.88572, 39.32907 ] } },
{ "type": "Feature", "properties": { "STATE": "NEVADA", "NAME": "Old Mill Cross Country Ski Area", "TYPE": "Alpine" }, "geometry": { "type": "Point", "coordinates": [ -115.67752, 36.32055 ] } },
{ "type": "Feature", "properties": { "STATE": "NEVADA", "NAME": "Sky Tavern Ski Area", "TYPE": "Both" }, "geometry": { "type": "Point", "coordinates": [ -119.8735, 39.33657 ] } },
{ "type": "Feature", "properties": { "STATE": "NEVADA", "NAME": "Sky Tavern Ski Area", "TYPE": "Alpine" }, "geometry": { "type": "Point", "coordinates": [ -119.901, 39.33796 ] } },
{ "type": "Feature", "properties": { "STATE": "NEVADA", "NAME": "Slide Mountain Ski Area", "TYPE": "Both" }, "geometry": { "type": "Point", "coordinates": [ -119.87128, 39.31879 ] } },
{ "type": "Feature", "properties": { "STATE": "NEW HAMPSHIRE", "NAME": "Abenaki Ski Area", "TYPE": "Both" }, "geometry": { "type": "Point", "coordinates": [ -71.22833, 43.61139 ] } },
{ "type": "Feature", "properties": { "STATE": "NEW HAMPSHIRE", "NAME": "Alpine Ridge Ski Area", "TYPE": "Both" }, "geometry": { "type": "Point", "coordinates": [ -71.36889, 43.54583 ] } },
{ "type": "Feature", "properties": { "STATE": "NEW HAMPSHIRE", "NAME": "Attitash Bear Peak Ski Area", "TYPE": "Both" }, "geometry": { "type": "Point", "coordinates": [ -71.23, 44.08278 ] } },
{ "type": "Feature", "properties": { "STATE": "NEW HAMPSHIRE", "NAME": "Balsams-Wilderness Ski Area", "TYPE": "Both" }, "geometry": { "type": "Point", "coordinates": [ -71.79389, 44.85694 ] } },
{ "type": "Feature", "properties": { "STATE": "NEW HAMPSHIRE", "NAME": "Bear Mountain Ski Trail", "TYPE": "Alpine" }, "geometry": { "type": "Point", "coordinates": [ -71.2975, 44.04583 ] } },
{ "type": "Feature", "properties": { "STATE": "NEW HAMPSHIRE", "NAME": "Black Mountain Ski Areal", "TYPE": "Both" }, "geometry": { "type": "Point", "coordinates": [ -71.16472, 44.16722 ] } },
{ "type": "Feature", "properties": { "STATE": "NEW HAMPSHIRE", "NAME": "Black Water Ski Area", "TYPE": "Both" }, "geometry": { "type": "Point", "coordinates": [ -70.91667, 43.24194 ] } },
{ "type": "Feature", "properties": { "STATE": "NEW HAMPSHIRE", "NAME": "Bretton Woods Ski Area", "TYPE": "Both" }, "geometry": { "type": "Point", "coordinates": [ -71.46111, 44.25417 ] } },
{ "type": "Feature", "properties": { "STATE": "NEW HAMPSHIRE", "NAME": "Brookline Ski Area", "TYPE": "Both" }, "geometry": { "type": "Point", "coordinates": [ -71.69167, 42.73611 ] } },
{ "type": "Feature", "properties": { "STATE": "NEW HAMPSHIRE", "NAME": "Cannon Mountain Ski Area", "TYPE": "Both" }, "geometry": { "type": "Point", "coordinates": [ -71.70194, 44.17722 ] } },
{ "type": "Feature", "properties": { "STATE": "NEW HAMPSHIRE", "NAME": "Dartmouth Skiway", "TYPE": "Both" }, "geometry": { "type": "Point", "coordinates": [ -72.10083, 43.78694 ] } },
{ "type": "Feature", "properties": { "STATE": "NEW HAMPSHIRE", "NAME": "Doublehead Ski Trail", "TYPE": "Alpine" }, "geometry": { "type": "Point", "coordinates": [ -71.14, 44.16861 ] } },
{ "type": "Feature", "properties": { "STATE": "NEW HAMPSHIRE", "NAME": "Eastman Ski Area", "TYPE": "Both" }, "geometry": { "type": "Point", "coordinates": [ -72.12917, 43.52222 ] } },
{ "type": "Feature", "properties": { "STATE": "NEW HAMPSHIRE", "NAME": "Elgin Kirby Ski Area", "TYPE": "Both" }, "geometry": { "type": "Point", "coordinates": [ -71.53472, 43.26333 ] } },
{ "type": "Feature", "properties": { "STATE": "NEW HAMPSHIRE", "NAME": "Franconia Cross Country Center", "TYPE": "Alpine" }, "geometry": { "type": "Point", "coordinates": [ -71.74833, 44.22694 ] } },
{ "type": "Feature", "properties": { "STATE": "NEW HAMPSHIRE", "NAME": "Great Glen Trails", "TYPE": "Both" }, "geometry": { "type": "Point", "coordinates": [ -71.17361, 44.38778 ] } },
{ "type": "Feature", "properties": { "STATE": "NEW HAMPSHIRE", "NAME": "Gunstock Ski Area", "TYPE": "Both" }, "geometry": { "type": "Point", "coordinates": [ -71.37889, 43.52556 ] } },
{ "type": "Feature", "properties": { "STATE": "NEW HAMPSHIRE", "NAME": "Highland Ski Area", "TYPE": "Both" }, "geometry": { "type": "Point", "coordinates": [ -71.55417, 43.40528 ] } },
{ "type": "Feature", "properties": { "STATE": "NEW HAMPSHIRE", "NAME": "Indian Mound Ski Area", "TYPE": "Both" }, "geometry": { "type": "Point", "coordinates": [ -71.04722, 42.86278 ] } },
{ "type": "Feature", "properties": { "STATE": "NEW HAMPSHIRE", "NAME": "Intervale Ski Area", "TYPE": "Both" }, "geometry": { "type": "Point", "coordinates": [ -71.14083, 44.10444 ] } },
{ "type": "Feature", "properties": { "STATE": "NEW HAMPSHIRE", "NAME": "Jackson Ski Touring Foundation", "TYPE": "Alpine" }, "geometry": { "type": "Point", "coordinates": [ -71.18583, 44.145 ] } },
{ "type": "Feature", "properties": { "STATE": "NEW HAMPSHIRE", "NAME": "King Pine Ski Area", "TYPE": "Both" }, "geometry": { "type": "Point", "coordinates": [ -71.09167, 43.87083 ] } },
{ "type": "Feature", "properties": { "STATE": "NEW HAMPSHIRE", "NAME": "King Ridge Ski Area", "TYPE": "Both" }, "geometry": { "type": "Point", "coordinates": [ -71.99028, 43.37194 ] } },
{ "type": "Feature", "properties": { "STATE": "NEW HAMPSHIRE", "NAME": "Loon Mountain Ski Area", "TYPE": "Both" }, "geometry": { "type": "Point", "coordinates": [ -71.63028, 44.05667 ] } },
{ "type": "Feature", "properties": { "STATE": "NEW HAMPSHIRE", "NAME": "McIntyre Ski Area", "TYPE": "Both" }, "geometry": { "type": "Point", "coordinates": [ -71.43944, 43.00417 ] } },
{ "type": "Feature", "properties": { "STATE": "NEW HAMPSHIRE", "NAME": "Moose Mountain Ski Area", "TYPE": "Both" }, "geometry": { "type": "Point", "coordinates": [ -71.07806, 43.53278 ] } },
{ "type": "Feature", "properties": { "STATE": "NEW HAMPSHIRE", "NAME": "Mount Cranmore Ski Area", "TYPE": "Both" }, "geometry": { "type": "Point", "coordinates": [ -71.09389, 44.05556 ] } },
{ "type": "Feature", "properties": { "STATE": "NEW HAMPSHIRE", "NAME": "Mount Sunapee Ski Area", "TYPE": "Both" }, "geometry": { "type": "Point", "coordinates": [ -72.07139, 43.34056 ] } },
{ "type": "Feature", "properties": { "STATE": "NEW HAMPSHIRE", "NAME": "Mount Tecumseh Ski Area", "TYPE": "Both" }, "geometry": { "type": "Point", "coordinates": [ -71.54222, 43.96278 ] } },
{ "type": "Feature", "properties": { "STATE": "NEW HAMPSHIRE", "NAME": "Mount Whittier Ski Area", "TYPE": "Both" }, "geometry": { "type": "Point", "coordinates": [ -71.21444, 43.80806 ] } },
{ "type": "Feature", "properties": { "STATE": "NEW HAMPSHIRE", "NAME": "Nestlenook Farm on the River Ski Are", "TYPE": "Both" }, "geometry": { "type": "Point", "coordinates": [ -71.14167, 44.16333 ] } },
{ "type": "Feature", "properties": { "STATE": "NEW HAMPSHIRE", "NAME": "Norsk Cross Country Resort", "TYPE": "Alpine" }, "geometry": { "type": "Point", "coordinates": [ -71.98556, 43.41389 ] } },
{ "type": "Feature", "properties": { "STATE": "NEW HAMPSHIRE", "NAME": "Number Five Ski Trail", "TYPE": "Alpine" }, "geometry": { "type": "Point", "coordinates": [ -71.12139, 44.09722 ] } },
{ "type": "Feature", "properties": { "STATE": "NEW HAMPSHIRE", "NAME": "Ossipee Mountain Ski Area", "TYPE": "Both" }, "geometry": { "type": "Point", "coordinates": [ -71.35417, 43.76 ] } },
{ "type": "Feature", "properties": { "STATE": "NEW HAMPSHIRE", "NAME": "Pats Peak Ski Area", "TYPE": "Both" }, "geometry": { "type": "Point", "coordinates": [ -71.79667, 43.16222 ] } },
{ "type": "Feature", "properties": { "STATE": "NEW HAMPSHIRE", "NAME": "Pinnacle Mountain Ski Area", "TYPE": "Both" }, "geometry": { "type": "Point", "coordinates": [ -72.21306, 42.97083 ] } },
{ "type": "Feature", "properties": { "STATE": "NEW HAMPSHIRE", "NAME": "Purity Springs Ski Area", "TYPE": "Both" }, "geometry": { "type": "Point", "coordinates": [ -71.08889, 43.86111 ] } },
{ "type": "Feature", "properties": { "STATE": "NEW HAMPSHIRE", "NAME": "Ragged Mountain Ski Area", "TYPE": "Both" }, "geometry": { "type": "Point", "coordinates": [ -71.84306, 43.47639 ] } },
{ "type": "Feature", "properties": { "STATE": "NEW HAMPSHIRE", "NAME": "Roads End Farm Ski Area", "TYPE": "Both" }, "geometry": { "type": "Point", "coordinates": [ -72.44611, 42.88861 ] } },
{ "type": "Feature", "properties": { "STATE": "NEW HAMPSHIRE", "NAME": "Snapper Ski Trail", "TYPE": "Alpine" }, "geometry": { "type": "Point", "coordinates": [ -71.82722, 43.99722 ] } },
{ "type": "Feature", "properties": { "STATE": "NEW HAMPSHIRE", "NAME": "Storrs Hill Ski Area", "TYPE": "Both" }, "geometry": { "type": "Point", "coordinates": [ -72.25167, 43.63389 ] } },
{ "type": "Feature", "properties": { "STATE": "NEW HAMPSHIRE", "NAME": "Temple Mountain Ski Area", "TYPE": "Both" }, "geometry": { "type": "Point", "coordinates": [ -71.88639, 42.84444 ] } },
{ "type": "Feature", "properties": { "STATE": "NEW HAMPSHIRE", "NAME": "Tenney Mountain Ski Area", "TYPE": "Both" }, "geometry": { "type": "Point", "coordinates": [ -71.79389, 43.73583 ] } },
{ "type": "Feature", "properties": { "STATE": "NEW HAMPSHIRE", "NAME": "Tuckerman's Ravine Ski Area", "TYPE": "Both" }, "geometry": { "type": "Point", "coordinates": [ -71.27528, 44.26306 ] } },
{ "type": "Feature", "properties": { "STATE": "NEW HAMPSHIRE", "NAME": "Waterville Valley Ski Area", "TYPE": "Both" }, "geometry": { "type": "Point", "coordinates": [ -71.52917, 43.96528 ] } },
{ "type": "Feature", "properties": { "STATE": "NEW HAMPSHIRE", "NAME": "Whaleback Ski Resort", "TYPE": "Both" }, "geometry": { "type": "Point", "coordinates": [ -71.62, 44.08722 ] } },
{ "type": "Feature", "properties": { "STATE": "NEW HAMPSHIRE", "NAME": "Wildcat Mountain Ski Area", "TYPE": "Both" }, "geometry": { "type": "Point", "coordinates": [ -71.23528, 44.26 ] } },
{ "type": "Feature", "properties": { "STATE": "NEW JERSEY", "NAME": "Campgaw Mountain Ski Area", "TYPE": "Both" }, "geometry": { "type": "Point", "coordinates": [ -74.19972, 41.05417 ] } },
{ "type": "Feature", "properties": { "STATE": "NEW JERSEY", "NAME": "Hidden Valley Ski Area", "TYPE": "Both" }, "geometry": { "type": "Point", "coordinates": [ -74.4836, 41.19833 ] } },
{ "type": "Feature", "properties": { "STATE": "NEW JERSEY", "NAME": "High Point XC Ski Trail", "TYPE": "Alpine" }, "geometry": { "type": "Point", "coordinates": [ -74.66194, 41.32056 ] } },
{ "type": "Feature", "properties": { "STATE": "NEW JERSEY", "NAME": "Mountain Creek Ski Area", "TYPE": "Both" }, "geometry": { "type": "Point", "coordinates": [ -74.4836, 41.19833 ] } },
{ "type": "Feature", "properties": { "STATE": "NEW MEXICO", "NAME": "Adventure Ski Trail", "TYPE": "Alpine" }, "geometry": { "type": "Point", "coordinates": [ -105.27222, 36.38778 ] } },
{ "type": "Feature", "properties": { "STATE": "NEW MEXICO", "NAME": "Alpine Ski Trail", "TYPE": "Alpine" }, "geometry": { "type": "Point", "coordinates": [ -105.79444, 35.79111 ] } },
{ "type": "Feature", "properties": { "STATE": "NEW MEXICO", "NAME": "Als Run Ski Area", "TYPE": "Alpine" }, "geometry": { "type": "Point", "coordinates": [ -105.45278, 36.59449 ] } },
{ "type": "Feature", "properties": { "STATE": "NEW MEXICO", "NAME": "Ambush Ski Trail", "TYPE": "Alpine" }, "geometry": { "type": "Point", "coordinates": [ -105.78806, 33.39722 ] } },
{ "type": "Feature", "properties": { "STATE": "NEW MEXICO", "NAME": "Angel Fire Ski Area", "TYPE": "Alpine" }, "geometry": { "type": "Point", "coordinates": [ -105.23555, 36.38033 ] } },
{ "type": "Feature", "properties": { "STATE": "NEW MEXICO", "NAME": "Angel Fire Ski Area", "TYPE": "Both" }, "geometry": { "type": "Point", "coordinates": [ -105.27222, 36.38422 ] } },
{ "type": "Feature", "properties": { "STATE": "NEW MEXICO", "NAME": "Arriba Ski Trail", "TYPE": "Alpine" }, "geometry": { "type": "Point", "coordinates": [ -105.27222, 36.43778 ] } },
{ "type": "Feature", "properties": { "STATE": "NEW MEXICO", "NAME": "Aspen Bowl Ski Area", "TYPE": "Both" }, "geometry": { "type": "Point", "coordinates": [ -106.41836, 35.20701 ] } },
{ "type": "Feature", "properties": { "STATE": "NEW MEXICO", "NAME": "Aspen Glade Ski Trail", "TYPE": "Alpine" }, "geometry": { "type": "Point", "coordinates": [ -106.41806, 35.20694 ] } },
{ "type": "Feature", "properties": { "STATE": "NEW MEXICO", "NAME": "Aspen Narrows Ski Trail", "TYPE": "Alpine" }, "geometry": { "type": "Point", "coordinates": [ -106.41778, 35.20694 ] } },
{ "type": "Feature", "properties": { "STATE": "NEW MEXICO", "NAME": "Baby Bear Ski Trail", "TYPE": "Alpine" }, "geometry": { "type": "Point", "coordinates": [ -105.45222, 36.59444 ] } },
{ "type": "Feature", "properties": { "STATE": "NEW MEXICO", "NAME": "Cascade Ski Trail", "TYPE": "Alpine" }, "geometry": { "type": "Point", "coordinates": [ -105.70417, 32.95056 ] } },
{ "type": "Feature", "properties": { "STATE": "NEW MEXICO", "NAME": "Fire Escape Ski Trail", "TYPE": "Alpine" }, "geometry": { "type": "Point", "coordinates": [ -105.27222, 36.3875 ] } },
{ "type": "Feature", "properties": { "STATE": "NEW MEXICO", "NAME": "Midway Ski Trail", "TYPE": "Alpine" }, "geometry": { "type": "Point", "coordinates": [ -105.45222, 36.59556 ] } },
{ "type": "Feature", "properties": { "STATE": "NEW MEXICO", "NAME": "Pajarito Mountain Ski Area", "TYPE": "Both" }, "geometry": { "type": "Point", "coordinates": [ -106.3928, 35.89033 ] } },
{ "type": "Feature", "properties": { "STATE": "NEW MEXICO", "NAME": "Red River Ski Area", "TYPE": "Both" }, "geometry": { "type": "Point", "coordinates": [ -105.41584, 36.70754 ] } },
{ "type": "Feature", "properties": { "STATE": "NEW MEXICO", "NAME": "Rio Costilla Ski Area", "TYPE": "Both" }, "geometry": { "type": "Point", "coordinates": [ -105.44806, 36.85893 ] } },
{ "type": "Feature", "properties": { "STATE": "NEW MEXICO", "NAME": "Sierra Blanca Ski Area", "TYPE": "Both" }, "geometry": { "type": "Point", "coordinates": [ -105.79916, 33.39733 ] } },
{ "type": "Feature", "properties": { "STATE": "NEW MEXICO", "NAME": "Sipapu Ski Area", "TYPE": "Both" }, "geometry": { "type": "Point", "coordinates": [ -105.55195, 36.15505 ] } },
{ "type": "Feature", "properties": { "STATE": "NEW MEXICO", "NAME": "Ski Cloudcroft Ski Area", "TYPE": "Both" }, "geometry": { "type": "Point", "coordinates": [ -105.7061, 32.9493 ] } },
{ "type": "Feature", "properties": { "STATE": "NEW MEXICO", "NAME": "Top Notch Ski Area", "TYPE": "Alpine" }, "geometry": { "type": "Point", "coordinates": [ -105.78861, 33.39733 ] } },
{ "type": "Feature", "properties": { "STATE": "NEW MEXICO", "NAME": "Triple Chair Number Five Ski Trail", "TYPE": "Alpine" }, "geometry": { "type": "Point", "coordinates": [ -105.78806, 33.39778 ] } },
{ "type": "Feature", "properties": { "STATE": "NEW MEXICO", "NAME": "Val Verde Ski Area", "TYPE": "Both" }, "geometry": { "type": "Point", "coordinates": [ -105.32166, 36.55505 ] } },
{ "type": "Feature", "properties": { "STATE": "NEW YORK", "NAME": "Allegany XC Trail", "TYPE": "Alpine" }, "geometry": { "type": "Point", "coordinates": [ -78.71528, 42.15778 ] } },
{ "type": "Feature", "properties": { "STATE": "NEW YORK", "NAME": "Bald Hill Ski Bowl", "TYPE": "Both" }, "geometry": { "type": "Point", "coordinates": [ -73.02278, 40.84389 ] } },
{ "type": "Feature", "properties": { "STATE": "NEW YORK", "NAME": "Belleayre Ski Area", "TYPE": "Both" }, "geometry": { "type": "Point", "coordinates": [ -74.49028, 42.14417 ] } },
{ "type": "Feature", "properties": { "STATE": "NEW YORK", "NAME": "Big Tupper Ski Area", "TYPE": "Both" }, "geometry": { "type": "Point", "coordinates": [ -74.46444, 44.22389 ] } },
{ "type": "Feature", "properties": { "STATE": "NEW YORK", "NAME": "Bob Cat Ski Center", "TYPE": "Both" }, "geometry": { "type": "Point", "coordinates": [ -74.78611, 42.18861 ] } },
{ "type": "Feature", "properties": { "STATE": "NEW YORK", "NAME": "Bova Ski Tow", "TYPE": "Both" }, "geometry": { "type": "Point", "coordinates": [ -78.71639, 42.10111 ] } },
{ "type": "Feature", "properties": { "STATE": "NEW YORK", "NAME": "Brantling Ski Area", "TYPE": "Both" }, "geometry": { "type": "Point", "coordinates": [ -77.06917, 43.1475 ] } },
{ "type": "Feature", "properties": { "STATE": "NEW YORK", "NAME": "Bristol Mountain Ski Area", "TYPE": "Both" }, "geometry": { "type": "Point", "coordinates": [ -77.28833, 42.87417 ] } },
{ "type": "Feature", "properties": { "STATE": "NEW YORK", "NAME": "Byrncliff Resort Ski Area", "TYPE": "Both" }, "geometry": { "type": "Point", "coordinates": [ -78.31, 42.76333 ] } },
{ "type": "Feature", "properties": { "STATE": "NEW YORK", "NAME": "Catamount Ski Area", "TYPE": "Both" }, "geometry": { "type": "Point", "coordinates": [ -73.52639, 42.17889 ] } },
{ "type": "Feature", "properties": { "STATE": "NEW YORK", "NAME": "Cockaigne Ski Area", "TYPE": "Both" }, "geometry": { "type": "Point", "coordinates": [ -79.1, 42.29444 ] } },
{ "type": "Feature", "properties": { "STATE": "NEW YORK", "NAME": "Cortina Valley Ski Area", "TYPE": "Both" }, "geometry": { "type": "Point", "coordinates": [ -74.0975, 42.19583 ] } },
{ "type": "Feature", "properties": { "STATE": "NEW YORK", "NAME": "Dry Hill Ski Area", "TYPE": "Both" }, "geometry": { "type": "Point", "coordinates": [ -75.91111, 43.97472 ] } },
{ "type": "Feature", "properties": { "STATE": "NEW YORK", "NAME": "Fahnestock Ski Slope", "TYPE": "Both" }, "geometry": { "type": "Point", "coordinates": [ -73.81833, 41.47528 ] } },
{ "type": "Feature", "properties": { "STATE": "NEW YORK", "NAME": "Four Seasons Ski Area", "TYPE": "Both" }, "geometry": { "type": "Point", "coordinates": [ -76.00472, 43.02972 ] } },
{ "type": "Feature", "properties": { "STATE": "NEW YORK", "NAME": "Friends Lake Inn XC Trail", "TYPE": "Cross-Country" }, "geometry": { "type": "Point", "coordinates": [ -73.84278, 43.62944 ] } },
{ "type": "Feature", "properties": { "STATE": "NEW YORK", "NAME": "Frost Ridge Ski Area", "TYPE": "Both" }, "geometry": { "type": "Point", "coordinates": [ -77.98444, 42.97833 ] } },
{ "type": "Feature", "properties": { "STATE": "NEW YORK", "NAME": "Garnett Hill XC Ski Trail", "TYPE": "Cross-Country" }, "geometry": { "type": "Point", "coordinates": [ -74.04917, 43.73861 ] } },
{ "type": "Feature", "properties": { "STATE": "NEW YORK", "NAME": "Gore Mountain Ski Area", "TYPE": "Both" }, "geometry": { "type": "Point", "coordinates": [ -74.03556, 43.67639 ] } },
{ "type": "Feature", "properties": { "STATE": "NEW YORK", "NAME": "Greek Peak Ski Area", "TYPE": "Both" }, "geometry": { "type": "Point", "coordinates": [ -76.18083, 42.60111 ] } },
{ "type": "Feature", "properties": { "STATE": "NEW YORK", "NAME": "Hickory Ski Area", "TYPE": "Both" }, "geometry": { "type": "Point", "coordinates": [ -73.94, 42.81417 ] } },
{ "type": "Feature", "properties": { "STATE": "NEW YORK", "NAME": "Holiday Mountain Ski Area", "TYPE": "Both" }, "geometry": { "type": "Point", "coordinates": [ -74.68972, 41.65556 ] } },
{ "type": "Feature", "properties": { "STATE": "NEW YORK", "NAME": "Holiday Valley Ski Area", "TYPE": "Alpine" }, "geometry": { "type": "Point", "coordinates": [ -78.68, 42.26194 ] } },
{ "type": "Feature", "properties": { "STATE": "NEW YORK", "NAME": "Holiday Valley Ski Club", "TYPE": "Alpine" }, "geometry": { "type": "Point", "coordinates": [ -78.68, 42.26194 ] } },
{ "type": "Feature", "properties": { "STATE": "NEW YORK", "NAME": "Holimont Ski Area", "TYPE": "Both" }, "geometry": { "type": "Point", "coordinates": [ -78.68889, 42.2725 ] } },
{ "type": "Feature", "properties": { "STATE": "NEW YORK", "NAME": "Holimont Ski Club", "TYPE": "Alpine" }, "geometry": { "type": "Point", "coordinates": [ -78.68889, 42.2725 ] } },
{ "type": "Feature", "properties": { "STATE": "NEW YORK", "NAME": "Hunt Hollow Ski Area", "TYPE": "Both" }, "geometry": { "type": "Point", "coordinates": [ -77.40278, 42.61528 ] } },
{ "type": "Feature", "properties": { "STATE": "NEW YORK", "NAME": "Hunter Mountain Ski area", "TYPE": "Both" }, "geometry": { "type": "Point", "coordinates": [ -74.23083, 42.17778 ] } },
{ "type": "Feature", "properties": { "STATE": "NEW YORK", "NAME": "Kissing Bridge Ski Area", "TYPE": "Both" }, "geometry": { "type": "Point", "coordinates": [ -78.65806, 42.61917 ] } },
{ "type": "Feature", "properties": { "STATE": "NEW YORK", "NAME": "Labrador Mountain Ski Area", "TYPE": "Both" }, "geometry": { "type": "Point", "coordinates": [ -76.07417, 42.75722 ] } },
{ "type": "Feature", "properties": { "STATE": "NEW YORK", "NAME": "Lapland Lake Ski Area", "TYPE": "Both" }, "geometry": { "type": "Point", "coordinates": [ -74.1725, 43.22556 ] } },
{ "type": "Feature", "properties": { "STATE": "NEW YORK", "NAME": "Maple Ski Ridge", "TYPE": "Both" }, "geometry": { "type": "Point", "coordinates": [ -73.94, 42.81417 ] } },
{ "type": "Feature", "properties": { "STATE": "NEW YORK", "NAME": "McCauley Mt. Ski Area", "TYPE": "Both" }, "geometry": { "type": "Point", "coordinates": [ -74.89, 43.39583 ] } },
{ "type": "Feature", "properties": { "STATE": "NEW YORK", "NAME": "Mount Peter Ski Area", "TYPE": "Both" }, "geometry": { "type": "Point", "coordinates": [ -74.29111, 41.24139 ] } },
{ "type": "Feature", "properties": { "STATE": "NEW YORK", "NAME": "Mount Pisgah Ski Area", "TYPE": "Both" }, "geometry": { "type": "Point", "coordinates": [ -74.12583, 44.34528 ] } },
{ "type": "Feature", "properties": { "STATE": "NEW YORK", "NAME": "Mt. Vanhoevenberg XC Ski Trail", "TYPE": "Cross-Country" }, "geometry": { "type": "Point", "coordinates": [ -73.98028, 44.27944 ] } },
{ "type": "Feature", "properties": { "STATE": "NEW YORK", "NAME": "North Hampton Park Ski Area", "TYPE": "Both" }, "geometry": { "type": "Point", "coordinates": [ -77.93944, 43.21361 ] } },
{ "type": "Feature", "properties": { "STATE": "NEW YORK", "NAME": "Olympic Ski Jump", "TYPE": "Both" }, "geometry": { "type": "Point", "coordinates": [ -73.965, 44.25639 ] } },
{ "type": "Feature", "properties": { "STATE": "NEW YORK", "NAME": "Paleface Ski Center", "TYPE": "Both" }, "geometry": { "type": "Point", "coordinates": [ -73.75556, 44.38111 ] } },
{ "type": "Feature", "properties": { "STATE": "NEW YORK", "NAME": "Peek n Peak Ski Area", "TYPE": "Both" }, "geometry": { "type": "Point", "coordinates": [ -79.73278, 42.11917 ] } },
{ "type": "Feature", "properties": { "STATE": "NEW YORK", "NAME": "Poverty Hill Ski Club", "TYPE": "Both" }, "geometry": { "type": "Point", "coordinates": [ -78.69583, 42.31556 ] } },
{ "type": "Feature", "properties": { "STATE": "NEW YORK", "NAME": "Skaneateles Ski Area", "TYPE": "Both" }, "geometry": { "type": "Point", "coordinates": [ -76.42944, 42.94694 ] } },
{ "type": "Feature", "properties": { "STATE": "NEW YORK", "NAME": "Ski Plattekill Ski Area", "TYPE": "Both" }, "geometry": { "type": "Point", "coordinates": [ -74.64861, 42.26667 ] } },
{ "type": "Feature", "properties": { "STATE": "NEW YORK", "NAME": "Ski Tamarack Ski Area", "TYPE": "Both" }, "geometry": { "type": "Point", "coordinates": [ -78.685, 42.64417 ] } },
{ "type": "Feature", "properties": { "STATE": "NEW YORK", "NAME": "Ski Valley Club", "TYPE": "Both" }, "geometry": { "type": "Point", "coordinates": [ -77.40278, 42.61528 ] } },
{ "type": "Feature", "properties": { "STATE": "NEW YORK", "NAME": "Snow Ridge Ski Area", "TYPE": "Both" }, "geometry": { "type": "Point", "coordinates": [ -75.41167, 43.62722 ] } },
{ "type": "Feature", "properties": { "STATE": "NEW YORK", "NAME": "Song Mountain Ski Area", "TYPE": "Both" }, "geometry": { "type": "Point", "coordinates": [ -76.10972, 42.79806 ] } },
{ "type": "Feature", "properties": { "STATE": "NEW YORK", "NAME": "Sterling Forest Ski Area", "TYPE": "Both" }, "geometry": { "type": "Point", "coordinates": [ -74.31917, 41.1825 ] } },
{ "type": "Feature", "properties": { "STATE": "NEW YORK", "NAME": "Swain Ski Area", "TYPE": "Both" }, "geometry": { "type": "Point", "coordinates": [ -77.85361, 42.47778 ] } },
{ "type": "Feature", "properties": { "STATE": "NEW YORK", "NAME": "Taconic Trails Ski Area", "TYPE": "Both" }, "geometry": { "type": "Point", "coordinates": [ -73.27917, 42.72222 ] } },
{ "type": "Feature", "properties": { "STATE": "NEW YORK", "NAME": "Thunder Ridge Ski Area", "TYPE": "Both" }, "geometry": { "type": "Point", "coordinates": [ -73.60667, 41.51361 ] } },
{ "type": "Feature", "properties": { "STATE": "NEW YORK", "NAME": "Titus Mountain Ski Area", "TYPE": "Both" }, "geometry": { "type": "Point", "coordinates": [ -74.23778, 44.72611 ] } },
{ "type": "Feature", "properties": { "STATE": "NEW YORK", "NAME": "Toggenberg Ski Area", "TYPE": "Both" }, "geometry": { "type": "Point", "coordinates": [ -75.98639, 42.835 ] } },
{ "type": "Feature", "properties": { "STATE": "NEW YORK", "NAME": "West Mountain Ski Area", "TYPE": "Both" }, "geometry": { "type": "Point", "coordinates": [ -73.81583, 43.30944 ] } },
{ "type": "Feature", "properties": { "STATE": "NEW YORK", "NAME": "White Face Mountain Ski Area", "TYPE": "Both" }, "geometry": { "type": "Point", "coordinates": [ -73.81583, 44.38833 ] } },
{ "type": "Feature", "properties": { "STATE": "NEW YORK", "NAME": "Willard Mountain Ski Area", "TYPE": "Both" }, "geometry": { "type": "Point", "coordinates": [ -73.52361, 43.02 ] } },
{ "type": "Feature", "properties": { "STATE": "NEW YORK", "NAME": "Windham Ski Area", "TYPE": "Both" }, "geometry": { "type": "Point", "coordinates": [ -74.25972, 42.29167 ] } },
{ "type": "Feature", "properties": { "STATE": "NEW YORK", "NAME": "Woods Valley Ski Area", "TYPE": "Both" }, "geometry": { "type": "Point", "coordinates": [ -75.38333, 43.30556 ] } },
{ "type": "Feature", "properties": { "STATE": "OHIO", "NAME": "Alpine Valley Ski Area", "TYPE": "Both" }, "geometry": { "type": "Point", "coordinates": [ -81.55278, 41.24111 ] } },
{ "type": "Feature", "properties": { "STATE": "OHIO", "NAME": "Boston Mills Ski Area", "TYPE": "Both" }, "geometry": { "type": "Point", "coordinates": [ -81.53833, 41.27611 ] } },
{ "type": "Feature", "properties": { "STATE": "OHIO", "NAME": "Clear Fork Ski Resort", "TYPE": "Both" }, "geometry": { "type": "Point", "coordinates": [ -82.425, 40.58833 ] } },
{ "type": "Feature", "properties": { "STATE": "OHIO", "NAME": "Mad River Mountain Ski Area", "TYPE": "Both" }, "geometry": { "type": "Point", "coordinates": [ -83.75972, 40.36111 ] } },
{ "type": "Feature", "properties": { "STATE": "OHIO", "NAME": "Snowtrails Ski Area", "TYPE": "Both" }, "geometry": { "type": "Point", "coordinates": [ -82.51556, 40.75833 ] } },
{ "type": "Feature", "properties": { "STATE": "OHIO", "NAME": "Spicy Run Ski Area", "TYPE": "Both" }, "geometry": { "type": "Point", "coordinates": [ -83.24667, 39.09889 ] } },
{ "type": "Feature", "properties": { "STATE": "OHIO", "NAME": "Valley Hi Ski Area", "TYPE": "Both" }, "geometry": { "type": "Point", "coordinates": [ -83.675, 40.31333 ] } },
{ "type": "Feature", "properties": { "STATE": "OREGON", "NAME": "Alpine Ski Trail", "TYPE": "Alpine" }, "geometry": { "type": "Point", "coordinates": [ -121.73139, 45.31889 ] } },
{ "type": "Feature", "properties": { "STATE": "OREGON", "NAME": "Anthony Lakes Ski Area", "TYPE": "Both" }, "geometry": { "type": "Point", "coordinates": [ -118.23521, 44.96403 ] } },
{ "type": "Feature", "properties": { "STATE": "OREGON", "NAME": "Arbuckle Ski Area", "TYPE": "Both" }, "geometry": { "type": "Point", "coordinates": [ -119.24275, 45.19596 ] } },
{ "type": "Feature", "properties": { "STATE": "OREGON", "NAME": "Cooper Spur Ski Area", "TYPE": "Both" }, "geometry": { "type": "Point", "coordinates": [ -121.60559, 45.4126 ] } },
{ "type": "Feature", "properties": { "STATE": "OREGON", "NAME": "Cooper Spur Ski Trail", "TYPE": "Alpine" }, "geometry": { "type": "Point", "coordinates": [ -121.63083, 45.40472 ] } },
{ "type": "Feature", "properties": { "STATE": "OREGON", "NAME": "Elk Lake Resort", "TYPE": "Both" }, "geometry": { "type": "Point", "coordinates": [ -121.80806, 43.97889 ] } },
{ "type": "Feature", "properties": { "STATE": "OREGON", "NAME": "Glade Ski Trail", "TYPE": "Alpine" }, "geometry": { "type": "Point", "coordinates": [ -121.735, 45.32083 ] } },
{ "type": "Feature", "properties": { "STATE": "OREGON", "NAME": "Hoodoo Ski Area", "TYPE": "Both" }, "geometry": { "type": "Point", "coordinates": [ -121.87333, 44.40917 ] } },
{ "type": "Feature", "properties": { "STATE": "OREGON", "NAME": "Mount Ashland Ski Area", "TYPE": "Both" }, "geometry": { "type": "Point", "coordinates": [ -122.70945, 42.08317 ] } },
{ "type": "Feature", "properties": { "STATE": "OREGON", "NAME": "Mount Hood Meadow Ski Area", "TYPE": "Both" }, "geometry": { "type": "Point", "coordinates": [ -121.66365, 45.33121 ] } },
{ "type": "Feature", "properties": { "STATE": "OREGON", "NAME": "Mt. Bachelor Ski Area", "TYPE": "Both" }, "geometry": { "type": "Point", "coordinates": [ -121.68028, 43.99528 ] } },
{ "type": "Feature", "properties": { "STATE": "OREGON", "NAME": "Mt. Bailey Snowcat Skiing", "TYPE": "Both" }, "geometry": { "type": "Point", "coordinates": [ -122.21944, 43.15528 ] } },
{ "type": "Feature", "properties": { "STATE": "OREGON", "NAME": "Mt. Hood Skibowl", "TYPE": "Both" }, "geometry": { "type": "Point", "coordinates": [ -121.76861, 45.29472 ] } },
{ "type": "Feature", "properties": { "STATE": "OREGON", "NAME": "Shelter Cove Resort - Odell Lake", "TYPE": "Both" }, "geometry": { "type": "Point", "coordinates": [ -121.96361, 43.54917 ] } },
{ "type": "Feature", "properties": { "STATE": "OREGON", "NAME": "Spout Springs Ski Area", "TYPE": "Both" }, "geometry": { "type": "Point", "coordinates": [ -118.05161, 45.75403 ] } },
{ "type": "Feature", "properties": { "STATE": "OREGON", "NAME": "Summit Ski Area", "TYPE": "Both" }, "geometry": { "type": "Point", "coordinates": [ -121.75361, 45.30417 ] } },
{ "type": "Feature", "properties": { "STATE": "OREGON", "NAME": "Summit Sno-Park", "TYPE": "Both" }, "geometry": { "type": "Point", "coordinates": [ -122.28389, 42.39639 ] } },
{ "type": "Feature", "properties": { "STATE": "OREGON", "NAME": "Sunriver Resort", "TYPE": "Both" }, "geometry": { "type": "Point", "coordinates": [ -121.4375, 43.88417 ] } },
{ "type": "Feature", "properties": { "STATE": "OREGON", "NAME": "Timberline Ski Area", "TYPE": "Both" }, "geometry": { "type": "Point", "coordinates": [ -121.72833, 45.40306 ] } },
{ "type": "Feature", "properties": { "STATE": "OREGON", "NAME": "Warner Canyon Ski Area", "TYPE": "Both" }, "geometry": { "type": "Point", "coordinates": [ -120.29689, 42.23736 ] } },
{ "type": "Feature", "properties": { "STATE": "OREGON", "NAME": "Willamette Pass Ski Area", "TYPE": "Both" }, "geometry": { "type": "Point", "coordinates": [ -122.03169, 43.60177 ] } },
{ "type": "Feature", "properties": { "STATE": "PENNSYLVANIA", "NAME": "Alpine Mountain Ski Area", "TYPE": "Both" }, "geometry": { "type": "Point", "coordinates": [ -75.23, 41.11083 ] } },
{ "type": "Feature", "properties": { "STATE": "PENNSYLVANIA", "NAME": "Apple Hill Ski Resort", "TYPE": "Both" }, "geometry": { "type": "Point", "coordinates": [ -75.60861, 40.63139 ] } },
{ "type": "Feature", "properties": { "STATE": "PENNSYLVANIA", "NAME": "Bear Creek Ski Area", "TYPE": "Both" }, "geometry": { "type": "Point", "coordinates": [ -75.55556, 40.51583 ] } },
{ "type": "Feature", "properties": { "STATE": "PENNSYLVANIA", "NAME": "Big Boulder Ski Resort", "TYPE": "Both" }, "geometry": { "type": "Point", "coordinates": [ -75.60056, 41.05 ] } },
{ "type": "Feature", "properties": { "STATE": "PENNSYLVANIA", "NAME": "Blue Knob Ski Area", "TYPE": "Both" }, "geometry": { "type": "Point", "coordinates": [ -78.56194, 40.28833 ] } },
{ "type": "Feature", "properties": { "STATE": "PENNSYLVANIA", "NAME": "Blue Mountain Ski Area", "TYPE": "Both" }, "geometry": { "type": "Point", "coordinates": [ -75.61056, 40.80139 ] } },
{ "type": "Feature", "properties": { "STATE": "PENNSYLVANIA", "NAME": "Boyce Park Ski Area", "TYPE": "Both" }, "geometry": { "type": "Point", "coordinates": [ -79.74944, 40.46778 ] } },
{ "type": "Feature", "properties": { "STATE": "PENNSYLVANIA", "NAME": "Camelback Ski Area", "TYPE": "Both" }, "geometry": { "type": "Point", "coordinates": [ -75.35556, 41.04778 ] } },
{ "type": "Feature", "properties": { "STATE": "PENNSYLVANIA", "NAME": "Canadohta Ski Slope", "TYPE": "Both" }, "geometry": { "type": "Point", "coordinates": [ -79.85833, 41.83222 ] } },
{ "type": "Feature", "properties": { "STATE": "PENNSYLVANIA", "NAME": "Chadds Peak Camp and Ski School", "TYPE": "Both" }, "geometry": { "type": "Point", "coordinates": [ -75.62167, 39.87139 ] } },
{ "type": "Feature", "properties": { "STATE": "PENNSYLVANIA", "NAME": "Crystal Lake Ski Area", "TYPE": "Both" }, "geometry": { "type": "Point", "coordinates": [ -76.72417, 41.24111 ] } },
{ "type": "Feature", "properties": { "STATE": "PENNSYLVANIA", "NAME": "Denton Hill Ski Area", "TYPE": "Both" }, "geometry": { "type": "Point", "coordinates": [ -77.83194, 41.77222 ] } },
{ "type": "Feature", "properties": { "STATE": "PENNSYLVANIA", "NAME": "Doe Mountain Ski Area", "TYPE": "Both" }, "geometry": { "type": "Point", "coordinates": [ -75.62889, 40.47528 ] } },
{ "type": "Feature", "properties": { "STATE": "PENNSYLVANIA", "NAME": "Eagle Rock Ski Area", "TYPE": "Both" }, "geometry": { "type": "Point", "coordinates": [ -75.975, 40.95833 ] } },
{ "type": "Feature", "properties": { "STATE": "PENNSYLVANIA", "NAME": "Elk Mountain Ski Center", "TYPE": "Both" }, "geometry": { "type": "Point", "coordinates": [ -75.5575, 41.72 ] } },
{ "type": "Feature", "properties": { "STATE": "PENNSYLVANIA", "NAME": "Fernwood Ski Area (historical)", "TYPE": "Both" }, "geometry": { "type": "Point", "coordinates": [ -75.01667, 41.07972 ] } },
{ "type": "Feature", "properties": { "STATE": "PENNSYLVANIA", "NAME": "Glade Knob Ski Slope", "TYPE": "Both" }, "geometry": { "type": "Point", "coordinates": [ -79.24083, 39.76139 ] } },
{ "type": "Feature", "properties": { "STATE": "PENNSYLVANIA", "NAME": "Hidden Valley Ski Area", "TYPE": "Both" }, "geometry": { "type": "Point", "coordinates": [ -79.2575, 40.05806 ] } },
{ "type": "Feature", "properties": { "STATE": "PENNSYLVANIA", "NAME": "Jack Frost Mountain Ski Area", "TYPE": "Both" }, "geometry": { "type": "Point", "coordinates": [ -75.65361, 41.10778 ] } },
{ "type": "Feature", "properties": { "STATE": "PENNSYLVANIA", "NAME": "Laurel Mountain Ski Resort", "TYPE": "Both" }, "geometry": { "type": "Point", "coordinates": [ -79.16806, 40.15639 ] } },
{ "type": "Feature", "properties": { "STATE": "PENNSYLVANIA", "NAME": "Little Gap Ski Area", "TYPE": "Both" }, "geometry": { "type": "Point", "coordinates": [ -75.52, 40.81 ] } },
{ "type": "Feature", "properties": { "STATE": "PENNSYLVANIA", "NAME": "Masthope Ski Area", "TYPE": "Both" }, "geometry": { "type": "Point", "coordinates": [ -75.03139, 41.51417 ] } },
{ "type": "Feature", "properties": { "STATE": "PENNSYLVANIA", "NAME": "Montage Ski Area", "TYPE": "Both" }, "geometry": { "type": "Point", "coordinates": [ -75.67056, 41.35833 ] } },
{ "type": "Feature", "properties": { "STATE": "PENNSYLVANIA", "NAME": "Mount Airy Lodge Ski Area", "TYPE": "Both" }, "geometry": { "type": "Point", "coordinates": [ -75.32333, 41.10667 ] } },
{ "type": "Feature", "properties": { "STATE": "PENNSYLVANIA", "NAME": "Mount Pleasant Ski Resort", "TYPE": "Both" }, "geometry": { "type": "Point", "coordinates": [ -80.07417, 41.85222 ] } },
{ "type": "Feature", "properties": { "STATE": "PENNSYLVANIA", "NAME": "Mount Tone Ski Area", "TYPE": "Both" }, "geometry": { "type": "Point", "coordinates": [ -75.30333, 41.84583 ] } },
{ "type": "Feature", "properties": { "STATE": "PENNSYLVANIA", "NAME": "Mt. View Ski Area", "TYPE": "Both" }, "geometry": { "type": "Point", "coordinates": [ -80.13194, 41.87417 ] } },
{ "type": "Feature", "properties": { "STATE": "PENNSYLVANIA", "NAME": "Mystic Mountain Ski Area", "TYPE": "Both" }, "geometry": { "type": "Point", "coordinates": [ -79.925, 39.87833 ] } },
{ "type": "Feature", "properties": { "STATE": "PENNSYLVANIA", "NAME": "Plateau De Mount Ski Area", "TYPE": "Both" }, "geometry": { "type": "Point", "coordinates": [ -79.22861, 40.07222 ] } },
{ "type": "Feature", "properties": { "STATE": "PENNSYLVANIA", "NAME": "Pocono Manor Ski Area", "TYPE": "Both" }, "geometry": { "type": "Point", "coordinates": [ -75.35667, 41.0975 ] } },
{ "type": "Feature", "properties": { "STATE": "PENNSYLVANIA", "NAME": "Richmond Hill Ski Area", "TYPE": "Both" }, "geometry": { "type": "Point", "coordinates": [ -77.91389, 39.95778 ] } },
{ "type": "Feature", "properties": { "STATE": "PENNSYLVANIA", "NAME": "Saw Creek Ski Area", "TYPE": "Both" }, "geometry": { "type": "Point", "coordinates": [ -75.045, 41.12083 ] } },
{ "type": "Feature", "properties": { "STATE": "PENNSYLVANIA", "NAME": "Seven Springs Ski Area", "TYPE": "Both" }, "geometry": { "type": "Point", "coordinates": [ -79.2975, 40.02306 ] } },
{ "type": "Feature", "properties": { "STATE": "PENNSYLVANIA", "NAME": "Shawnee Mountain Ski Area", "TYPE": "Both" }, "geometry": { "type": "Point", "coordinates": [ -75.07861, 41.03806 ] } },
{ "type": "Feature", "properties": { "STATE": "PENNSYLVANIA", "NAME": "Ski Big Bear Ski Area", "TYPE": "Both" }, "geometry": { "type": "Point", "coordinates": [ -74.98639, 41.48194 ] } },
{ "type": "Feature", "properties": { "STATE": "PENNSYLVANIA", "NAME": "Ski Liberty Ski Area", "TYPE": "Both" }, "geometry": { "type": "Point", "coordinates": [ -77.37111, 39.75972 ] } },
{ "type": "Feature", "properties": { "STATE": "PENNSYLVANIA", "NAME": "Ski Roundtop Ski Area", "TYPE": "Both" }, "geometry": { "type": "Point", "coordinates": [ -76.92667, 40.10667 ] } },
{ "type": "Feature", "properties": { "STATE": "PENNSYLVANIA", "NAME": "Ski Sawmill Ski Area", "TYPE": "Both" }, "geometry": { "type": "Point", "coordinates": [ -77.29111, 41.52389 ] } },
{ "type": "Feature", "properties": { "STATE": "PENNSYLVANIA", "NAME": "Ski Snowpeak", "TYPE": "Both" }, "geometry": { "type": "Point", "coordinates": [ -77.24667, 40.545 ] } },
{ "type": "Feature", "properties": { "STATE": "PENNSYLVANIA", "NAME": "Snozone Ski Area", "TYPE": "Both" }, "geometry": { "type": "Point", "coordinates": [ -80.00306, 40.25222 ] } },
{ "type": "Feature", "properties": { "STATE": "PENNSYLVANIA", "NAME": "Split Rock Ski Area", "TYPE": "Both" }, "geometry": { "type": "Point", "coordinates": [ -75.62083, 41.06167 ] } },
{ "type": "Feature", "properties": { "STATE": "PENNSYLVANIA", "NAME": "Tamiment Ski Area", "TYPE": "Both" }, "geometry": { "type": "Point", "coordinates": [ -75.015, 41.13417 ] } },
{ "type": "Feature", "properties": { "STATE": "PENNSYLVANIA", "NAME": "Tanglewood Ski Area", "TYPE": "Both" }, "geometry": { "type": "Point", "coordinates": [ -75.16472, 41.41306 ] } },
{ "type": "Feature", "properties": { "STATE": "PENNSYLVANIA", "NAME": "Tussey Mountain Ski Resort", "TYPE": "Both" }, "geometry": { "type": "Point", "coordinates": [ -77.75361, 40.76917 ] } },
{ "type": "Feature", "properties": { "STATE": "PENNSYLVANIA", "NAME": "White Mountain Ski Area", "TYPE": "Both" }, "geometry": { "type": "Point", "coordinates": [ -79.3325, 40.01444 ] } },
{ "type": "Feature", "properties": { "STATE": "PENNSYLVANIA", "NAME": "Whitetail Ski Area", "TYPE": "Both" }, "geometry": { "type": "Point", "coordinates": [ -77.90361, 39.82778 ] } },
{ "type": "Feature", "properties": { "STATE": "PENNSYLVANIA", "NAME": "Willowbrook Ski Area", "TYPE": "Both" }, "geometry": { "type": "Point", "coordinates": [ -79.86667, 40.125 ] } },
{ "type": "Feature", "properties": { "STATE": "RHODE ISLAND", "NAME": "Yawgoo Ski Area", "TYPE": "Both" }, "geometry": { "type": "Point", "coordinates": [ -71.55444, 41.53556 ] } },
{ "type": "Feature", "properties": { "STATE": "SOUTH DAKOTA", "NAME": "Deer Mountain Ski Area", "TYPE": "Both" }, "geometry": { "type": "Point", "coordinates": [ -103.825, 44.30167 ] } },
{ "type": "Feature", "properties": { "STATE": "SOUTH DAKOTA", "NAME": "Big Hill Ski Trail", "TYPE": "Alpine" }, "geometry": { "type": "Point", "coordinates": [ -103.93333, 44.40889 ] } },
{ "type": "Feature", "properties": { "STATE": "SOUTH DAKOTA", "NAME": "Great Bear Ski Area", "TYPE": "Both" }, "geometry": { "type": "Point", "coordinates": [ -96.7, 43.55 ] } },
{ "type": "Feature", "properties": { "STATE": "SOUTH DAKOTA", "NAME": "Terry Peak Ski Area", "TYPE": "Both" }, "geometry": { "type": "Point", "coordinates": [ -103.83472, 44.3275 ] } },
{ "type": "Feature", "properties": { "STATE": "TENNESSEE", "NAME": "Ober Gatlinburg Ski Area", "TYPE": "Both" }, "geometry": { "type": "Point", "coordinates": [ -83.51028, 35.71417 ] } },
{ "type": "Feature", "properties": { "STATE": "UTAH", "NAME": "Alta Ski Area", "TYPE": "Both" }, "geometry": { "type": "Point", "coordinates": [ -111.63828, 40.57967 ] } },
{ "type": "Feature", "properties": { "STATE": "UTAH", "NAME": "Beaver Mountain Ski Area", "TYPE": "Both" }, "geometry": { "type": "Point", "coordinates": [ -111.54162, 41.96826 ] } },
{ "type": "Feature", "properties": { "STATE": "UTAH", "NAME": "Blue Mountain Ski Area", "TYPE": "Both" }, "geometry": { "type": "Point", "coordinates": [ -109.4368, 37.86056 ] } },
{ "type": "Feature", "properties": { "STATE": "UTAH", "NAME": "Brian Head Ski Area", "TYPE": "Both" }, "geometry": { "type": "Point", "coordinates": [ -112.838, 37.69192 ] } },
{ "type": "Feature", "properties": { "STATE": "UTAH", "NAME": "Brighton Ski Area", "TYPE": "Both" }, "geometry": { "type": "Point", "coordinates": [ -111.58356, 40.59995 ] } },
{ "type": "Feature", "properties": { "STATE": "UTAH", "NAME": "Brighton Ski Area Heliport", "TYPE": "Alpine" }, "geometry": { "type": "Point", "coordinates": [ -111.58328, 40.60134 ] } },
{ "type": "Feature", "properties": { "STATE": "UTAH", "NAME": "Cedar Canyon Ski Area", "TYPE": "Both" }, "geometry": { "type": "Point", "coordinates": [ -112.93272, 37.5972 ] } },
{ "type": "Feature", "properties": { "STATE": "UTAH", "NAME": "Deer Valley Ski Area", "TYPE": "Both" }, "geometry": { "type": "Point", "coordinates": [ -111.4805, 40.63551 ] } },
{ "type": "Feature", "properties": { "STATE": "UTAH", "NAME": "Elk Meadows Ski Area", "TYPE": "Both" }, "geometry": { "type": "Point", "coordinates": [ -112.37134, 38.32386 ] } },
{ "type": "Feature", "properties": { "STATE": "UTAH", "NAME": "Mount Holly Ski Area", "TYPE": "Both" }, "geometry": { "type": "Point", "coordinates": [ -112.38411, 38.32053 ] } },
{ "type": "Feature", "properties": { "STATE": "UTAH", "NAME": "Nordic Valley Ski Area", "TYPE": "Both" }, "geometry": { "type": "Point", "coordinates": [ -111.87247, 41.30494 ] } },
{ "type": "Feature", "properties": { "STATE": "UTAH", "NAME": "Park City Ski Area", "TYPE": "Both" }, "geometry": { "type": "Point", "coordinates": [ -111.50495, 40.64356 ] } },
{ "type": "Feature", "properties": { "STATE": "UTAH", "NAME": "Park City West Ski Area", "TYPE": "Both" }, "geometry": { "type": "Point", "coordinates": [ -111.57495, 40.68995 ] } },
{ "type": "Feature", "properties": { "STATE": "UTAH", "NAME": "Powder Mountain Ski Area", "TYPE": "Both" }, "geometry": { "type": "Point", "coordinates": [ -111.7719, 41.37772 ] } },
{ "type": "Feature", "properties": { "STATE": "UTAH", "NAME": "Snowland Ski Area", "TYPE": "Both" }, "geometry": { "type": "Point", "coordinates": [ -111.33687, 39.65607 ] } },
{ "type": "Feature", "properties": { "STATE": "UTAH", "NAME": "Solitude Ski Area", "TYPE": "Both" }, "geometry": { "type": "Point", "coordinates": [ -111.59522, 40.62551 ] } },
{ "type": "Feature", "properties": { "STATE": "UTAH", "NAME": "Sundance Ski Area", "TYPE": "Both" }, "geometry": { "type": "Point", "coordinates": [ -111.58161, 40.38578 ] } },
{ "type": "Feature", "properties": { "STATE": "UTAH", "NAME": "Snow Basin Ski Area", "TYPE": "Both" }, "geometry": { "type": "Point", "coordinates": [ -111.8519, 41.21188 ] } },
{ "type": "Feature", "properties": { "STATE": "VERMONT", "NAME": "Big Bromley Ski Area", "TYPE": "Both" }, "geometry": { "type": "Point", "coordinates": [ -72.94028, 43.22056 ] } },
{ "type": "Feature", "properties": { "STATE": "VERMONT", "NAME": "Blueberry Lake Ski Touring Center", "TYPE": "Alpine" }, "geometry": { "type": "Point", "coordinates": [ -72.82722, 44.08528 ] } },
{ "type": "Feature", "properties": { "STATE": "VERMONT", "NAME": "Bolton Valley Ski Area", "TYPE": "Both" }, "geometry": { "type": "Point", "coordinates": [ -72.87028, 44.41583 ] } },
{ "type": "Feature", "properties": { "STATE": "VERMONT", "NAME": "Burke Mountain Ski Area", "TYPE": "Both" }, "geometry": { "type": "Point", "coordinates": [ -71.90194, 44.58333 ] } },
{ "type": "Feature", "properties": { "STATE": "VERMONT", "NAME": "Burke Mountain Ski Touring Center", "TYPE": "Alpine" }, "geometry": { "type": "Point", "coordinates": [ -71.90361, 44.59861 ] } },
{ "type": "Feature", "properties": { "STATE": "VERMONT", "NAME": "Camels Hump Nordic Ski Center", "TYPE": "Alpine" }, "geometry": { "type": "Point", "coordinates": [ -72.94389, 44.33222 ] } },
{ "type": "Feature", "properties": { "STATE": "VERMONT", "NAME": "Carinthia Ski Area", "TYPE": "Both" }, "geometry": { "type": "Point", "coordinates": [ -72.89778, 42.95722 ] } },
{ "type": "Feature", "properties": { "STATE": "VERMONT", "NAME": "Catamount Family Ski Area", "TYPE": "Both" }, "geometry": { "type": "Point", "coordinates": [ -73.0533, 44.45778 ] } },
{ "type": "Feature", "properties": { "STATE": "VERMONT", "NAME": "Chittenden Brook Cross-Country Ski T", "TYPE": "Alpine" }, "geometry": { "type": "Point", "coordinates": [ -72.91278, 43.82722 ] } },
{ "type": "Feature", "properties": { "STATE": "VERMONT", "NAME": "Churchhill House Ski Area", "TYPE": "Both" }, "geometry": { "type": "Point", "coordinates": [ -73.0525, 43.83167 ] } },
{ "type": "Feature", "properties": { "STATE": "VERMONT", "NAME": "Cochran Ski Center", "TYPE": "Both" }, "geometry": { "type": "Point", "coordinates": [ -72.9825, 44.39583 ] } },
{ "type": "Feature", "properties": { "STATE": "VERMONT", "NAME": "Edson Hill Cross Country Ski Center", "TYPE": "Alpine" }, "geometry": { "type": "Point", "coordinates": [ -72.72639, 44.51111 ] } },
{ "type": "Feature", "properties": { "STATE": "VERMONT", "NAME": "Fox Run Cross Country Ski Center", "TYPE": "Alpine" }, "geometry": { "type": "Point", "coordinates": [ -72.70056, 43.4175 ] } },
{ "type": "Feature", "properties": { "STATE": "VERMONT", "NAME": "Glen Ellen Ski Area", "TYPE": "Both" }, "geometry": { "type": "Point", "coordinates": [ -72.90667, 44.17361 ] } },
{ "type": "Feature", "properties": { "STATE": "VERMONT", "NAME": "Grafton Cross Country Ski Center", "TYPE": "Alpine" }, "geometry": { "type": "Point", "coordinates": [ -72.62306, 43.15111 ] } },
{ "type": "Feature", "properties": { "STATE": "VERMONT", "NAME": "Haystack Mountain Ski Area", "TYPE": "Both" }, "geometry": { "type": "Point", "coordinates": [ -72.90639, 42.92361 ] } },
{ "type": "Feature", "properties": { "STATE": "VERMONT", "NAME": "Hazens Notch Ski Touring Center", "TYPE": "Alpine" }, "geometry": { "type": "Point", "coordinates": [ -72.58722, 44.87694 ] } },
{ "type": "Feature", "properties": { "STATE": "VERMONT", "NAME": "Hildene Ski Touring Center", "TYPE": "Alpine" }, "geometry": { "type": "Point", "coordinates": [ -73.08861, 43.14694 ] } },
{ "type": "Feature", "properties": { "STATE": "VERMONT", "NAME": "Hogback Ski Area", "TYPE": "Both" }, "geometry": { "type": "Point", "coordinates": [ -72.79389, 42.84917 ] } },
{ "type": "Feature", "properties": { "STATE": "VERMONT", "NAME": "Jay Peak Ski Area", "TYPE": "Both" }, "geometry": { "type": "Point", "coordinates": [ -72.52611, 44.92444 ] } },
{ "type": "Feature", "properties": { "STATE": "VERMONT", "NAME": "Killington Ski Area", "TYPE": "Both" }, "geometry": { "type": "Point", "coordinates": [ -72.80694, 43.62 ] } },
{ "type": "Feature", "properties": { "STATE": "VERMONT", "NAME": "Living Memorial Park Ski Area", "TYPE": "Both" }, "geometry": { "type": "Point", "coordinates": [ -72.80694, 43.62 ] } },
{ "type": "Feature", "properties": { "STATE": "VERMONT", "NAME": "Lyndon Outing Club Ski Area", "TYPE": "Both" }, "geometry": { "type": "Point", "coordinates": [ -71.97472, 44.51694 ] } },
{ "type": "Feature", "properties": { "STATE": "VERMONT", "NAME": "Mad River Glen Ski Area", "TYPE": "Both" }, "geometry": { "type": "Point", "coordinates": [ -72.925, 44.20083 ] } },
{ "type": "Feature", "properties": { "STATE": "VERMONT", "NAME": "Majic Mountain Ski Center", "TYPE": "Both" }, "geometry": { "type": "Point", "coordinates": [ -72.77306, 43.20194 ] } },
{ "type": "Feature", "properties": { "STATE": "VERMONT", "NAME": "Maple Valley Ski Center", "TYPE": "Both" }, "geometry": { "type": "Point", "coordinates": [ -72.6275, 42.9425 ] } },
{ "type": "Feature", "properties": { "STATE": "VERMONT", "NAME": "Middlebury College Ski Area", "TYPE": "Both" }, "geometry": { "type": "Point", "coordinates": [ -73.18306, 44.01194 ] } },
{ "type": "Feature", "properties": { "STATE": "VERMONT", "NAME": "Mount Ascuteney Ski Area", "TYPE": "Both" }, "geometry": { "type": "Point", "coordinates": [ -72.46667, 43.46333 ] } },
{ "type": "Feature", "properties": { "STATE": "VERMONT", "NAME": "Mount Mansfield Ski Area", "TYPE": "Both" }, "geometry": { "type": "Point", "coordinates": [ -72.79583, 44.5275 ] } },
{ "type": "Feature", "properties": { "STATE": "VERMONT", "NAME": "Mount Snow Ski Area", "TYPE": "Both" }, "geometry": { "type": "Point", "coordinates": [ -72.90639, 42.96389 ] } },
{ "type": "Feature", "properties": { "STATE": "VERMONT", "NAME": "Mountain Meadows Ski Touring Center", "TYPE": "Alpine" }, "geometry": { "type": "Point", "coordinates": [ -72.8, 43.66806 ] } },
{ "type": "Feature", "properties": { "STATE": "VERMONT", "NAME": "Nordio Cross Country Ski Area", "TYPE": "Alpine" }, "geometry": { "type": "Point", "coordinates": [ -72.85417, 43.23222 ] } },
{ "type": "Feature", "properties": { "STATE": "VERMONT", "NAME": "Norwich University Ski Area", "TYPE": "Both" }, "geometry": { "type": "Point", "coordinates": [ -72.64278, 44.13889 ] } },
{ "type": "Feature", "properties": { "STATE": "VERMONT", "NAME": "Okemo Mountain Ski Area", "TYPE": "Both" }, "geometry": { "type": "Point", "coordinates": [ -72.73278, 43.40444 ] } },
{ "type": "Feature", "properties": { "STATE": "VERMONT", "NAME": "Oles Cross Country Ski Center", "TYPE": "Alpine" }, "geometry": { "type": "Point", "coordinates": [ -72.82306, 44.11111 ] } },
{ "type": "Feature", "properties": { "STATE": "VERMONT", "NAME": "Pico Peak Ski Area", "TYPE": "Both" }, "geometry": { "type": "Point", "coordinates": [ -72.84306, 43.66167 ] } },
{ "type": "Feature", "properties": { "STATE": "VERMONT", "NAME": "Prospect Mountain Ski Center", "TYPE": "Both" }, "geometry": { "type": "Point", "coordinates": [ -73.07583, 42.87528 ] } },
{ "type": "Feature", "properties": { "STATE": "VERMONT", "NAME": "Rikert Ski Touring Center", "TYPE": "Alpine" }, "geometry": { "type": "Point", "coordinates": [ -72.95444, 43.9375 ] } },
{ "type": "Feature", "properties": { "STATE": "VERMONT", "NAME": "Round Top Mountain Ski Area", "TYPE": "Both" }, "geometry": { "type": "Point", "coordinates": [ -72.74917, 43.53389 ] } },
{ "type": "Feature", "properties": { "STATE": "VERMONT", "NAME": "Sherman Hollow Ski Touring Center", "TYPE": "Alpine" }, "geometry": { "type": "Point", "coordinates": [ -73.02528, 44.35667 ] } },
{ "type": "Feature", "properties": { "STATE": "VERMONT", "NAME": "Sitzmark Cross Country Ski Center", "TYPE": "Alpine" }, "geometry": { "type": "Point", "coordinates": [ -72.83778, 42.92167 ] } },
{ "type": "Feature", "properties": { "STATE": "VERMONT", "NAME": "Smuggler's Notch Ski Area", "TYPE": "Both" }, "geometry": { "type": "Point", "coordinates": [ -72.79611, 44.55528 ] } },
{ "type": "Feature", "properties": { "STATE": "VERMONT", "NAME": "Snow Valley Ski Area", "TYPE": "Both" }, "geometry": { "type": "Point", "coordinates": [ -72.97611, 43.19444 ] } },
{ "type": "Feature", "properties": { "STATE": "VERMONT", "NAME": "Sonneberg Ski Area", "TYPE": "Both" }, "geometry": { "type": "Point", "coordinates": [ -72.58889, 43.72444 ] } },
{ "type": "Feature", "properties": { "STATE": "VERMONT", "NAME": "Spruce Peak Ski Area", "TYPE": "Both" }, "geometry": { "type": "Point", "coordinates": [ -72.77944, 44.54167 ] } },
{ "type": "Feature", "properties": { "STATE": "VERMONT", "NAME": "Stowe Ski Area", "TYPE": "Both" }, "geometry": { "type": "Point", "coordinates": [ -72.65056, 44.42972 ] } },
{ "type": "Feature", "properties": { "STATE": "VERMONT", "NAME": "Stratton Mountain Ski Center", "TYPE": "Both" }, "geometry": { "type": "Point", "coordinates": [ -72.90944, 43.12806 ] } },
{ "type": "Feature", "properties": { "STATE": "VERMONT", "NAME": "Sugarbush Valley Ski Area", "TYPE": "Both" }, "geometry": { "type": "Point", "coordinates": [ -72.90722, 44.13722 ] } },
{ "type": "Feature", "properties": { "STATE": "VERMONT", "NAME": "Suicide Six Ski Area", "TYPE": "Both" }, "geometry": { "type": "Point", "coordinates": [ -72.54444, 43.66472 ] } },
{ "type": "Feature", "properties": { "STATE": "VERMONT", "NAME": "Tater Hill Ski Center", "TYPE": "Both" }, "geometry": { "type": "Point", "coordinates": [ -72.71833, 43.22194 ] } },
{ "type": "Feature", "properties": { "STATE": "VERMONT", "NAME": "The White Horse Ski Touring Center", "TYPE": "Alpine" }, "geometry": { "type": "Point", "coordinates": [ -72.85222, 42.87333 ] } },
{ "type": "Feature", "properties": { "STATE": "VERMONT", "NAME": "Timber Creek Ski Resort", "TYPE": "Both" }, "geometry": { "type": "Point", "coordinates": [ -72.8875, 42.96528 ] } },
{ "type": "Feature", "properties": { "STATE": "VERMONT", "NAME": "Topnotch Ski Touring Center", "TYPE": "Alpine" }, "geometry": { "type": "Point", "coordinates": [ -72.74417, 44.49806 ] } },
{ "type": "Feature", "properties": { "STATE": "VERMONT", "NAME": "Trail Head Ski Touring Center", "TYPE": "Alpine" }, "geometry": { "type": "Point", "coordinates": [ -72.79806, 43.77806 ] } },
{ "type": "Feature", "properties": { "STATE": "VERMONT", "NAME": "Trapp Family Lodge and Cross Country", "TYPE": "Alpine" }, "geometry": { "type": "Point", "coordinates": [ -72.74528, 44.465 ] } },
{ "type": "Feature", "properties": { "STATE": "VERMONT", "NAME": "Tucker Hill Ski Center", "TYPE": "Both" }, "geometry": { "type": "Point", "coordinates": [ -72.86889, 44.18194 ] } },
{ "type": "Feature", "properties": { "STATE": "VERMONT", "NAME": "Twin Farms Ski Area", "TYPE": "Both" }, "geometry": { "type": "Point", "coordinates": [ -72.61944, 43.72861 ] } },
{ "type": "Feature", "properties": { "STATE": "VERMONT", "NAME": "Viking Cross Country Ski Area", "TYPE": "Alpine" }, "geometry": { "type": "Point", "coordinates": [ -72.79556, 43.22417 ] } },
{ "type": "Feature", "properties": { "STATE": "VERMONT", "NAME": "Wild Wings Ski Touring Center", "TYPE": "Alpine" }, "geometry": { "type": "Point", "coordinates": [ -72.90833, 43.25972 ] } },
{ "type": "Feature", "properties": { "STATE": "VERMONT", "NAME": "Wolf Run Cross Country Ski Center", "TYPE": "Alpine" }, "geometry": { "type": "Point", "coordinates": [ -72.77722, 44.82722 ] } },
{ "type": "Feature", "properties": { "STATE": "VERMONT", "NAME": "Woodstock Ski Touring Center", "TYPE": "Alpine" }, "geometry": { "type": "Point", "coordinates": [ -72.51583, 43.61472 ] } },
{ "type": "Feature", "properties": { "STATE": "VIRGINIA", "NAME": "Bryce Ski Area", "TYPE": "Both" }, "geometry": { "type": "Point", "coordinates": [ -78.7725, 38.80639 ] } },
{ "type": "Feature", "properties": { "STATE": "VIRGINIA", "NAME": "Massanutten Ski Area", "TYPE": "Both" }, "geometry": { "type": "Point", "coordinates": [ -78.75417, 38.40917 ] } },
{ "type": "Feature", "properties": { "STATE": "VIRGINIA", "NAME": "The Homestead Ski Area", "TYPE": "Both" }, "geometry": { "type": "Point", "coordinates": [ -78.57778, 38.15722 ] } },
{ "type": "Feature", "properties": { "STATE": "VIRGINIA", "NAME": "Wintergreen Ski Area", "TYPE": "Both" }, "geometry": { "type": "Point", "coordinates": [ -78.89972, 37.88472 ] } },
{ "type": "Feature", "properties": { "STATE": "WASHINGTON", "NAME": "Alpental Ski Area", "TYPE": "Both" }, "geometry": { "type": "Point", "coordinates": [ -121.42952, 47.44315 ] } },
{ "type": "Feature", "properties": { "STATE": "WASHINGTON", "NAME": "Bluewood Ski Area", "TYPE": "Both" }, "geometry": { "type": "Point", "coordinates": [ -117.85494, 46.08625 ] } },
{ "type": "Feature", "properties": { "STATE": "WASHINGTON", "NAME": "Brooks Memorial State Park Ski Area", "TYPE": "Both" }, "geometry": { "type": "Point", "coordinates": [ -120.67364, 45.98622 ] } },
{ "type": "Feature", "properties": { "STATE": "WASHINGTON", "NAME": "Echo Valley Ski Area", "TYPE": "Both" }, "geometry": { "type": "Point", "coordinates": [ -120.05616, 47.93594 ] } },
{ "type": "Feature", "properties": { "STATE": "WASHINGTON", "NAME": "Entiat Valley Ski Area", "TYPE": "Both" }, "geometry": { "type": "Point", "coordinates": [ -120.41506, 47.8565 ] } },
{ "type": "Feature", "properties": { "STATE": "WASHINGTON", "NAME": "Forty Nine Degrees North Ski Area", "TYPE": "Both" }, "geometry": { "type": "Point", "coordinates": [ -117.57109, 48.29403 ] } },
{ "type": "Feature", "properties": { "STATE": "WASHINGTON", "NAME": "Loup Loup Ski Area", "TYPE": "Both" }, "geometry": { "type": "Point", "coordinates": [ -119.91784, 48.39095 ] } },
{ "type": "Feature", "properties": { "STATE": "WASHINGTON", "NAME": "Pacific West Ski Area", "TYPE": "Both" }, "geometry": { "type": "Point", "coordinates": [ -121.3998, 47.38815 ] } },
{ "type": "Feature", "properties": { "STATE": "WASHINGTON", "NAME": "Ski Acres Ski Area", "TYPE": "Both" }, "geometry": { "type": "Point", "coordinates": [ -121.41369, 47.40676 ] } },
{ "type": "Feature", "properties": { "STATE": "WASHINGTON", "NAME": "Snoqualmie Summit Ski Area", "TYPE": "Both" }, "geometry": { "type": "Point", "coordinates": [ -121.41841, 47.42482 ] } },
{ "type": "Feature", "properties": { "STATE": "WASHINGTON", "NAME": "White Pass Ski Area", "TYPE": "Both" }, "geometry": { "type": "Point", "coordinates": [ -121.38756, 46.63538 ] } },
{ "type": "Feature", "properties": { "STATE": "WASHINGTON", "NAME": "White Pass X Country Ski Area", "TYPE": "Cross-Country" }, "geometry": { "type": "Point", "coordinates": [ -121.40395, 46.63538 ] } },
{ "type": "Feature", "properties": { "STATE": "WEST VIRGINIA", "NAME": "Alpine Lake Resort", "TYPE": "Both" }, "geometry": { "type": "Point", "coordinates": [ -79.50083, 39.47472 ] } },
{ "type": "Feature", "properties": { "STATE": "WEST VIRGINIA", "NAME": "Canaan Valley Ski Area", "TYPE": "Both" }, "geometry": { "type": "Point", "coordinates": [ -79.40472, 39.13472 ] } },
{ "type": "Feature", "properties": { "STATE": "WEST VIRGINIA", "NAME": "Snowshoe Mountain Ski Area", "TYPE": "Both" }, "geometry": { "type": "Point", "coordinates": [ -79.99694, 38.41389 ] } },
{ "type": "Feature", "properties": { "STATE": "WEST VIRGINIA", "NAME": "Timberline Ski Area", "TYPE": "Both" }, "geometry": { "type": "Point", "coordinates": [ -79.40472, 39.13472 ] } },
{ "type": "Feature", "properties": { "STATE": "WEST VIRGINIA", "NAME": "Winterplace Ski Area", "TYPE": "Both" }, "geometry": { "type": "Point", "coordinates": [ -81.115, 37.59056 ] } },
{ "type": "Feature", "properties": { "STATE": "WISCONSIN", "NAME": "Alpine Valley Ski Area", "TYPE": "Both" }, "geometry": { "type": "Point", "coordinates": [ -88.39944, 42.78917 ] } },
{ "type": "Feature", "properties": { "STATE": "WISCONSIN", "NAME": "Ausblick Ski Area", "TYPE": "Both" }, "geometry": { "type": "Point", "coordinates": [ -88.21806, 43.13583 ] } },
{ "type": "Feature", "properties": { "STATE": "WISCONSIN", "NAME": "Birch Park Ski Area", "TYPE": "Both" }, "geometry": { "type": "Point", "coordinates": [ -92.74861, 45.05333 ] } },
{ "type": "Feature", "properties": { "STATE": "WISCONSIN", "NAME": "Bruce Mound Winter Sports Area", "TYPE": "Both" }, "geometry": { "type": "Point", "coordinates": [ -90.79222, 44.44389 ] } },
{ "type": "Feature", "properties": { "STATE": "WISCONSIN", "NAME": "Calumet Ski Area", "TYPE": "Both" }, "geometry": { "type": "Point", "coordinates": [ -88.16389, 44.14028 ] } },
{ "type": "Feature", "properties": { "STATE": "WISCONSIN", "NAME": "Cascade Mountain Ski Area", "TYPE": "Both" }, "geometry": { "type": "Point", "coordinates": [ -89.51861, 43.49306 ] } },
{ "type": "Feature", "properties": { "STATE": "WISCONSIN", "NAME": "Christie Mountain Ski Area", "TYPE": "Both" }, "geometry": { "type": "Point", "coordinates": [ -91.45167, 45.47639 ] } },
{ "type": "Feature", "properties": { "STATE": "WISCONSIN", "NAME": "Christmas Mountain Ski Area", "TYPE": "Both" }, "geometry": { "type": "Point", "coordinates": [ -89.77083, 43.6275 ] } },
{ "type": "Feature", "properties": { "STATE": "WISCONSIN", "NAME": "Crystal Ridge Ski Area", "TYPE": "Both" }, "geometry": { "type": "Point", "coordinates": [ -88.00972, 42.88639 ] } },
{ "type": "Feature", "properties": { "STATE": "WISCONSIN", "NAME": "Devil's Head Ski Area", "TYPE": "Both" }, "geometry": { "type": "Point", "coordinates": [ -89.62778, 43.42167 ] } },
{ "type": "Feature", "properties": { "STATE": "WISCONSIN", "NAME": "Giant Pine Ski and Hike Trail", "TYPE": "Alpine" }, "geometry": { "type": "Point", "coordinates": [ -88.98722, 45.78722 ] } },
{ "type": "Feature", "properties": { "STATE": "WISCONSIN", "NAME": "Granite Peak Ski Area", "TYPE": "Both" }, "geometry": { "type": "Point", "coordinates": [ -89.63, 44.95917 ] } },
{ "type": "Feature", "properties": { "STATE": "WISCONSIN", "NAME": "Hidden Valley Ski Area", "TYPE": "Both" }, "geometry": { "type": "Point", "coordinates": [ -87.80722, 44.27639 ] } },
{ "type": "Feature", "properties": { "STATE": "WISCONSIN", "NAME": "Lake Geneva Ski Area", "TYPE": "Both" }, "geometry": { "type": "Point", "coordinates": [ -88.42972, 42.58861 ] } },
{ "type": "Feature", "properties": { "STATE": "WISCONSIN", "NAME": "Little Switzerland Ski Area", "TYPE": "Both" }, "geometry": { "type": "Point", "coordinates": [ -88.28611, 43.33361 ] } },
{ "type": "Feature", "properties": { "STATE": "WISCONSIN", "NAME": "Minocqua Winter Park", "TYPE": "Both" }, "geometry": { "type": "Point", "coordinates": [ -89.71083, 45.87139 ] } },
{ "type": "Feature", "properties": { "STATE": "WISCONSIN", "NAME": "Mount Valhalla Ski Area", "TYPE": "Both" }, "geometry": { "type": "Point", "coordinates": [ -91.0475, 46.71889 ] } },
{ "type": "Feature", "properties": { "STATE": "WISCONSIN", "NAME": "Mt. La Crosse Ski Area", "TYPE": "Both" }, "geometry": { "type": "Point", "coordinates": [ -91.23944, 43.80139 ] } },
{ "type": "Feature", "properties": { "STATE": "WISCONSIN", "NAME": "Newman Springs Ski Trail", "TYPE": "Alpine" }, "geometry": { "type": "Point", "coordinates": [ -90.1958, 45.94694 ] } },
{ "type": "Feature", "properties": { "STATE": "WISCONSIN", "NAME": "Nordic Mountain Ski Area", "TYPE": "Both" }, "geometry": { "type": "Point", "coordinates": [ -89.18444, 44.11806 ] } },
{ "type": "Feature", "properties": { "STATE": "WISCONSIN", "NAME": "Paul Bunyon Ski Area", "TYPE": "Both" }, "geometry": { "type": "Point", "coordinates": [ -88.52417, 45.32389 ] } },
{ "type": "Feature", "properties": { "STATE": "WISCONSIN", "NAME": "Rib Mountain Ski Area", "TYPE": "Both" }, "geometry": { "type": "Point", "coordinates": [ -89.68417, 44.92472 ] } },
{ "type": "Feature", "properties": { "STATE": "WISCONSIN", "NAME": "Silver Mine Hill Ski Jump", "TYPE": "Both" }, "geometry": { "type": "Point", "coordinates": [ -91.58472, 44.77389 ] } },
{ "type": "Feature", "properties": { "STATE": "WISCONSIN", "NAME": "Ski Hill Winter Sports Area", "TYPE": "Both" }, "geometry": { "type": "Point", "coordinates": [ -89.19917, 46.13556 ] } },
{ "type": "Feature", "properties": { "STATE": "WISCONSIN", "NAME": "Sky Line Ski Area", "TYPE": "Both" }, "geometry": { "type": "Point", "coordinates": [ -89.81667, 43.97056 ] } },
{ "type": "Feature", "properties": { "STATE": "WISCONSIN", "NAME": "Snow Crest Ski Area", "TYPE": "Both" }, "geometry": { "type": "Point", "coordinates": [ -92.73417, 45.095 ] } },
{ "type": "Feature", "properties": { "STATE": "WISCONSIN", "NAME": "Standing Rocks Ski Area", "TYPE": "Both" }, "geometry": { "type": "Point", "coordinates": [ -89.57444, 44.52361 ] } },
{ "type": "Feature", "properties": { "STATE": "WISCONSIN", "NAME": "Sunburst Ski Area", "TYPE": "Both" }, "geometry": { "type": "Point", "coordinates": [ -89.29028, 43.17778 ] } },
{ "type": "Feature", "properties": { "STATE": "WISCONSIN", "NAME": "Telemark Resort", "TYPE": "Both" }, "geometry": { "type": "Point", "coordinates": [ -91.25028, 46.18472 ] } },
{ "type": "Feature", "properties": { "STATE": "WISCONSIN", "NAME": "Trollhaugen Ski Area", "TYPE": "Both" }, "geometry": { "type": "Point", "coordinates": [ -92.63333, 45.35611 ] } },
{ "type": "Feature", "properties": { "STATE": "WISCONSIN", "NAME": "Tyrol Basin Ski Area", "TYPE": "Both" }, "geometry": { "type": "Point", "coordinates": [ -89.73361, 43.00917 ] } },
{ "type": "Feature", "properties": { "STATE": "WISCONSIN", "NAME": "Whitecap Mountain Ski Area", "TYPE": "Both" }, "geometry": { "type": "Point", "coordinates": [ -90.24583, 46.42806 ] } },
{ "type": "Feature", "properties": { "STATE": "WISCONSIN", "NAME": "Wilmot Mountain Ski Area", "TYPE": "Both" }, "geometry": { "type": "Point", "coordinates": [ -88.18194, 42.51278 ] } },
{ "type": "Feature", "properties": { "STATE": "WISCONSIN", "NAME": "Wintergreen Downhill Ski Area", "TYPE": "Both" }, "geometry": { "type": "Point", "coordinates": [ -90.08139, 43.14444 ] } },
{ "type": "Feature", "properties": { "STATE": "WYOMING", "NAME": "Bighorn Ski Area", "TYPE": "Both" }, "geometry": { "type": "Point", "coordinates": [ -107.51487, 44.60938 ] } },
{ "type": "Feature", "properties": { "STATE": "WYOMING", "NAME": "Elkhart Loop Ski Trail", "TYPE": "Alpine" }, "geometry": { "type": "Point", "coordinates": [ -109.73333, 42.99028 ] } },
{ "type": "Feature", "properties": { "STATE": "WYOMING", "NAME": "Grouse Mountain Ski Trail", "TYPE": "Alpine" }, "geometry": { "type": "Point", "coordinates": [ -109.71139, 42.94306 ] } },
{ "type": "Feature", "properties": { "STATE": "WYOMING", "NAME": "Hogadon Basin Ski Area", "TYPE": "Both" }, "geometry": { "type": "Point", "coordinates": [ -106.3387, 42.74552 ] } },
{ "type": "Feature", "properties": { "STATE": "WYOMING", "NAME": "Jackson Hole Ski Area", "TYPE": "Both" }, "geometry": { "type": "Point", "coordinates": [ -110.84746, 43.59659 ] } },
{ "type": "Feature", "properties": { "STATE": "WYOMING", "NAME": "Meadowlark Ski Area", "TYPE": "Both" }, "geometry": { "type": "Point", "coordinates": [ -107.21818, 44.1605 ] } },
{ "type": "Feature", "properties": { "STATE": "WYOMING", "NAME": "Medicine Bow Ski Area", "TYPE": "Both" }, "geometry": { "type": "Point", "coordinates": [ -106.18895, 41.33719 ] } },
{ "type": "Feature", "properties": { "STATE": "WYOMING", "NAME": "Park Loop Ski Trail", "TYPE": "Alpine" }, "geometry": { "type": "Point", "coordinates": [ -109.74972, 42.94917 ] } },
{ "type": "Feature", "properties": { "STATE": "WYOMING", "NAME": "White Pine Lodge Ski Area", "TYPE": "Both" }, "geometry": { "type": "Point", "coordinates": [ -109.75742, 42.97772 ] } }
]
}
